,City,Latitude,Longitude,Max Temperature,Humidity (%),Cloudiness (%),Wind Speed (MPH),Country,Date
0,jamestown,42.097,-79.2353,25.05,53,75,4.63,US,1627062319
1,xam nua,20.4197,104.0439,20.49,100,100,0.8,LA,1627062578
2,mizusawa,39.1333,141.1333,21.14,98,42,0.71,JP,1627062580
3,rikitea,-23.1203,-134.9692,22.04,74,73,7.99,PF,1627062581
4,dikson,73.5069,80.5464,7.04,68,41,4.76,RU,1627062415
5,ayan,56.45,138.1667,15.14,88,80,3.07,RU,1627062583
6,punta arenas,-53.15,-70.9167,5.06,70,0,13.38,CL,1627062585
7,hilo,19.7297,-155.09,26.82,94,90,2.06,US,1627062450
8,qaanaaq,77.484,-69.3632,6.14,62,78,0.79,GL,1627062588
9,ribeira grande,38.5167,-28.7,23.22,88,75,8.23,PT,1627062589
10,thompson,55.7435,-97.8558,23.09,35,1,9.26,CA,1627062417
11,sault sainte marie,46.5168,-84.3333,25.16,53,1,5.66,CA,1627062592
12,angoche,-16.2325,39.9086,22.81,75,96,7.8,MZ,1627062593
13,pozo colorado,-23.4923,-58.7972,34.73,14,0,5.28,PY,1627062401
14,honiara,-9.4333,159.95,24.4,87,45,1.88,SB,1627062597
15,maroua,10.591,14.3159,27.46,64,66,2.64,CM,1627062598
16,gambela,8.25,34.5833,21.17,97,100,1.64,ET,1627062599
17,waingapu,-9.6567,120.2641,21.81,81,5,2.94,ID,1627062600
18,bluff,-46.6,168.3333,6.0,85,99,4.29,NZ,1627062602
19,presidente dutra,-5.29,-44.49,34.74,26,1,3.74,BR,1627062604
20,martapura,-3.4167,114.85,24.05,100,92,0.51,ID,1627062605
21,nanortalik,60.1432,-45.2371,6.61,83,52,6.56,GL,1627062607
22,kondinskoye,59.6481,67.41,14.95,78,99,2.65,RU,1627062608
23,atar,20.5169,-13.0499,39.69,15,0,5.76,MR,1627062610
24,port alfred,-33.5906,26.891,11.82,65,76,2.73,ZA,1627062611
25,atuona,-9.8,-139.0333,24.78,76,57,4.76,PF,1627062613
26,kamenka,51.3223,42.7678,17.76,58,1,2.89,RU,1627062614
27,hobart,-42.8794,147.3294,6.92,80,57,0.89,AU,1627062454
28,opotiki,-38.0833,177.2833,6.33,92,38,2.45,NZ,1627062617
29,beloha,-25.1667,45.05,17.67,58,83,4.46,MG,1627062619
30,zvishavane,-20.3267,30.0665,12.63,51,83,4.23,ZW,1627062620
31,mataura,-46.1927,168.8643,5.27,92,86,1.4,NZ,1627062621
32,ugoofaaru,5.6667,73.0,28.1,78,65,5.92,MV,1627062623
33,bhuj,23.2667,69.6667,29.07,75,96,7.49,IN,1627062624
34,saint-louis,16.3333,-15.0,35.8,21,23,3.36,SN,1627062625
35,qurayyat,31.3318,37.3428,32.1,25,0,8.23,SA,1627062626
36,hermanus,-34.4187,19.2345,11.06,75,0,5.37,ZA,1627062427
37,yellowknife,62.456,-114.3525,19.62,100,40,0.45,CA,1627062629
38,itupiranga,-5.1347,-49.3267,36.18,25,39,1.76,BR,1627062630
39,viesite,56.3475,25.5551,16.96,67,7,2.83,LV,1627062631
40,carnarvon,-24.8667,113.6333,17.04,65,40,5.14,AU,1627062633
41,busselton,-33.65,115.3333,9.49,62,93,7.08,AU,1627062634
42,lebu,-37.6167,-73.65,11.95,79,100,7.24,CL,1627062635
43,saint-philippe,-21.3585,55.7679,20.77,73,67,3.01,RE,1627062637
44,gornopravdinsk,60.05,69.9,13.92,85,69,2.93,RU,1627062638
45,mayumba,-3.432,10.6554,21.75,84,63,2.83,GA,1627062639
46,namikupa,-10.8333,39.6,21.48,70,58,2.73,TZ,1627062642
47,los llanos de aridane,28.6585,-17.9182,23.4,77,20,9.77,ES,1627062643
48,albany,42.6001,-73.9662,26.19,57,32,2.48,US,1627062362
49,pangody,65.85,74.4859,12.08,92,73,13.69,RU,1627062646
50,broome,42.2506,-75.833,25.85,55,40,0.89,US,1627062381
51,gilgit,35.9221,74.3087,29.64,36,3,1.23,PK,1627062650
52,chhabra,24.6667,76.8333,26.86,83,100,3.41,IN,1627062651
53,atasu,48.6814,71.6433,24.48,33,2,4.79,KZ,1627062652
54,mareeba,-17.0,145.4333,17.4,96,18,1.11,AU,1627062654
55,deputatskiy,69.3,139.9,9.78,78,91,1.34,RU,1627062655
56,ushuaia,-54.8,-68.3,4.81,70,40,6.17,AR,1627062656
57,samarai,-10.6167,150.6667,26.45,85,82,3.69,PG,1627062215
58,avarua,-21.2078,-159.775,23.03,88,90,2.57,CK,1627062451
59,shakhovskaya,56.0283,35.5097,13.31,79,95,2.48,RU,1627062660
60,kodinsk,58.6881,99.1844,15.99,69,7,1.13,RU,1627062661
61,bambous virieux,-20.3428,57.7575,22.14,73,75,3.09,MU,1627062078
62,hervey bay,-25.2986,152.8535,21.13,82,34,8.14,AU,1627062663
63,cockburn town,21.4612,-71.1419,30.98,66,40,7.2,TC,1627062665
64,villa bruzual,9.3328,-69.1208,27.42,85,75,1.29,VE,1627062498
65,shache,38.4167,77.2406,26.97,32,0,2.54,CN,1627062190
66,hearst,49.6835,-83.6665,26.14,27,32,3.94,CA,1627062668
67,parainen,60.3067,22.301,19.01,53,8,6.44,FI,1627062670
68,georgetown,5.4112,100.3354,28.83,82,20,0.0,MY,1627062671
69,saint george,37.1041,-113.5841,35.26,47,94,1.34,US,1627062432
70,goundam,16.4145,-3.6708,37.67,29,32,4.08,ML,1627062673
71,souillac,-20.5167,57.5167,22.21,73,75,3.09,MU,1627062674
72,kaitangata,-46.2817,169.8464,5.52,78,55,2.24,NZ,1627062676
73,lasa,46.6166,10.7002,24.49,65,31,0.5,IT,1627062677
74,shestakovo,56.4915,103.96,12.93,97,4,0.9,RU,1627062678
75,ancud,-41.8697,-73.8203,9.74,57,12,2.32,CL,1627062290
76,fukue,32.6881,128.8419,26.49,81,100,4.62,JP,1627062486
77,san cristobal,7.7669,-72.225,30.1,56,94,3.41,VE,1627062479
78,lompoc,34.6391,-120.4579,27.85,81,75,2.57,US,1627062683
79,richards bay,-28.783,32.0377,15.91,55,36,7.75,ZA,1627062684
80,bogorodskoye,56.55,37.8833,16.55,61,89,3.75,RU,1627062685
81,vaini,-21.2,-175.2,23.09,94,75,1.54,TO,1627062687
82,banjar,-8.19,114.9675,24.92,87,28,3.11,ID,1627062688
83,poum,-20.2333,164.0167,21.97,82,100,4.87,NC,1627062229
84,salalah,17.0151,54.0924,26.05,94,90,3.6,OM,1627062499
85,jalu,29.0331,21.5482,33.06,25,0,4.45,LY,1627062152
86,oranjemund,-28.55,16.4333,16.45,34,0,4.59,NA,1627062694
87,esperance,-33.8667,121.9,7.91,78,86,10.97,AU,1627062695
88,airai,-8.9266,125.4092,12.99,46,7,1.46,TL,1627062518
89,namibe,-15.1961,12.1522,19.59,93,2,3.07,AO,1627062697
90,toledo,39.8333,-4.0,33.16,11,27,9.6,ES,1627062658
91,shenxian,36.2411,115.6672,25.43,84,100,1.87,CN,1627062700
92,chuy,-33.6971,-53.4616,20.09,66,6,2.88,UY,1627062701
93,kansanshi,-12.0951,26.4273,19.47,41,54,1.3,ZM,1627062702
94,port elizabeth,-33.918,25.5701,10.05,87,0,1.03,ZA,1627062704
95,vestmannaeyjar,63.4427,-20.2734,12.55,100,90,5.14,IS,1627062706
96,camacha,33.0833,-16.3333,22.42,73,40,6.69,PT,1627062707
97,manzhouli,49.6,117.4333,17.23,65,23,2.96,CN,1627062709
98,esil,51.9556,66.4042,25.24,38,58,3.92,KZ,1627062711
99,coihaique,-45.5752,-72.0662,7.97,61,75,4.12,CL,1627062173
100,bilibino,68.0546,166.4372,13.41,85,100,1.8,RU,1627062422
101,broken hill,-31.95,141.4333,7.84,81,46,4.63,AU,1627062714
102,narsaq,60.9167,-46.05,10.34,62,22,2.65,GL,1627062716
103,tuktoyaktuk,69.4541,-133.0374,12.0,71,75,4.63,CA,1627062717
104,kavaratti,10.5669,72.642,28.06,81,98,9.75,IN,1627062430
105,mount gambier,-37.8333,140.7667,8.95,93,90,7.72,AU,1627062719
106,provideniya,64.3833,-173.3,9.53,71,35,2.9,RU,1627062721
107,gela,37.0803,14.2307,30.88,66,0,3.18,IT,1627062722
108,taylorville,39.5489,-89.2945,31.07,70,75,2.06,US,1627062723
109,aljezur,37.3191,-8.8033,21.39,64,1,6.82,PT,1627062724
110,henties bay,-22.116,14.2845,16.59,48,0,3.92,NA,1627062708
111,leningradskiy,69.3833,178.4167,2.39,86,22,4.42,RU,1627062316
112,chokurdakh,70.6333,147.9167,2.26,83,29,5.4,RU,1627062728
113,iqaluit,63.7506,-68.5145,11.85,66,90,7.2,CA,1627062546
114,portland,45.5234,-122.6762,23.89,54,1,0.89,US,1627062010
115,vestmanna,62.1564,-7.1664,11.51,94,98,3.09,FO,1627062731
116,kapit,2.0167,112.9333,23.88,92,100,0.41,MY,1627062733
117,hithadhoo,-0.6,73.0833,28.13,76,96,7.58,MV,1627062458
118,butaritari,3.0707,172.7902,28.71,72,76,7.74,KI,1627062735
119,harper,4.375,-7.7169,25.53,72,89,4.17,LR,1627062737
120,nkhotakota,-12.9274,34.2961,22.45,67,87,4.99,MW,1627062739
121,cape town,-33.9258,18.4232,12.23,70,0,1.54,ZA,1627062740
122,new norfolk,-42.7826,147.0587,6.72,80,50,1.37,AU,1627062741
123,raudeberg,61.9875,5.1352,23.78,84,37,10.17,NO,1627062742
124,toora-khem,52.4675,96.11,18.91,48,100,1.15,RU,1627062744
125,isangel,-19.55,169.2667,23.57,88,10,2.06,VU,1627062745
126,lorengau,-2.0226,147.2712,27.25,81,55,2.35,PG,1627062746
127,sarzana,44.1115,9.9586,27.64,70,26,0.45,IT,1627062748
128,dicabisagan,17.0818,122.4157,27.42,77,100,3.09,PH,1627062750
129,tiksi,71.6872,128.8694,6.33,85,97,2.11,RU,1627062542
130,busko-zdroj,50.4708,20.7188,22.01,70,37,2.11,PL,1627062752
131,severo-kurilsk,50.6789,156.125,11.48,95,97,1.79,RU,1627062552
132,saskylakh,71.9167,114.0833,14.8,87,38,4.87,RU,1627062755
133,necochea,-38.5473,-58.7368,14.46,53,95,6.55,AR,1627062306
134,ordzhonikidze,52.4411,61.7408,20.44,86,100,6.8,KZ,1627062757
135,bergerac,44.8333,0.5,26.99,73,90,8.75,FR,1627062758
136,sao jose da coroa grande,-8.8978,-35.1478,25.2,75,52,6.19,BR,1627062388
137,krasnokamensk,50.0979,118.0369,16.49,73,19,2.63,RU,1627062761
138,ahipara,-35.1667,173.1667,9.5,85,0,1.35,NZ,1627062762
139,vicksburg,32.3526,-90.8779,33.82,67,40,1.54,US,1627062504
140,casper,42.8666,-106.3131,24.33,46,20,7.2,US,1627062274
141,acajutla,13.5928,-89.8275,34.33,53,100,1.57,SV,1627062768
142,menongue,-14.6585,17.691,14.38,18,64,2.37,AO,1627062769
143,bonthe,7.5264,-12.505,23.82,92,100,4.59,SL,1627062770
144,caravelas,-17.7125,-39.2481,23.7,57,100,3.61,BR,1627062771
145,huilong,31.8111,121.655,27.21,87,90,7.24,CN,1627062773
146,villa carlos paz,-31.4241,-64.4978,26.33,31,50,4.92,AR,1627062587
147,zaysan,47.4667,84.8667,21.66,55,60,1.68,KZ,1627062775
148,bethel,41.3712,-73.414,27.72,53,20,0.89,US,1627062776
149,nikolskoye,59.7035,30.7861,18.22,58,97,1.45,RU,1627062778
150,puerto ayora,-0.7393,-90.3518,25.98,77,95,4.02,EC,1627062779
151,pevek,69.7008,170.3133,5.23,84,97,1.73,RU,1627062254
152,faanui,-16.4833,-151.75,25.6,67,84,7.15,PF,1627062781
153,westport,41.1415,-73.3579,28.79,49,75,0.89,US,1627062010
154,ponta do sol,32.6667,-17.1,25.95,70,3,1.93,PT,1627062784
155,tual,-5.6667,132.75,26.56,81,100,7.03,ID,1627062226
156,enid,36.3956,-97.8784,35.08,54,1,2.68,US,1627062786
157,villanueva,15.3167,-88.0,32.55,49,75,3.09,HN,1627062787
158,sabang,5.8933,95.3214,28.74,77,98,9.72,ID,1627062788
159,plainview,40.7765,-73.4673,28.93,45,10,0.45,US,1627062790
160,ulaangom,49.9811,92.0667,21.1,52,63,3.1,MN,1627062791
161,hailar,49.2,119.7,18.47,79,32,3.87,CN,1627062792
162,kattivakkam,13.2167,80.3167,29.05,67,97,7.35,IN,1627062794
163,bahia blanca,-38.7196,-62.2724,14.88,51,100,7.78,AR,1627062795
164,cabo san lucas,22.8909,-109.9124,36.4,65,4,3.35,MX,1627062526
165,rawson,-43.3002,-65.1023,12.25,31,0,10.18,AR,1627062652
166,valparaiso,-33.0393,-71.6273,11.93,87,90,3.09,CL,1627062798
167,capoterra,39.1763,8.9718,31.84,51,0,4.12,IT,1627062801
168,were ilu,10.6,39.4333,13.03,88,100,1.88,ET,1627062802
169,kapaa,22.0752,-159.319,26.18,73,90,2.24,US,1627062803
170,mfou,3.7159,11.6427,23.92,78,20,2.06,CM,1627062804
171,kenai,60.5544,-151.2583,13.97,90,75,1.54,US,1627062806
172,kuzovatovo,53.5468,47.6866,15.34,66,9,1.35,RU,1627062807
173,sitka,57.0531,-135.33,13.94,88,90,1.54,US,1627062390
174,neepawa,50.2289,-99.4664,27.22,29,40,5.25,CA,1627062810
175,hamilton,39.1834,-84.5333,29.31,56,1,0.45,US,1627062731
176,okhotsk,59.3833,143.3,13.34,93,82,0.65,RU,1627062813
177,kasama,-10.2129,31.1808,18.64,52,36,4.48,ZM,1627062815
178,kutum,14.2,24.6667,24.6,60,89,7.77,SD,1627062816
179,cherskiy,68.75,161.3,5.07,80,0,2.7,RU,1627062818
180,sinnamary,5.3833,-52.95,27.87,81,29,5.74,GF,1627062781
181,pochutla,15.7432,-96.4661,33.23,49,38,3.4,MX,1627062820
182,victoria,22.2855,114.1577,30.74,85,38,1.79,HK,1627062579
183,canoas,-29.9178,-51.1836,30.32,36,3,1.03,BR,1627062822
184,maputo,-25.9653,32.5892,16.82,45,0,5.14,MZ,1627062824
185,biltine,14.5333,20.9167,30.48,46,94,4.05,TD,1627062825
186,polson,47.6936,-114.1632,26.34,26,13,0.45,US,1627062826
187,denpasar,-8.65,115.2167,24.81,88,20,1.54,ID,1627062828
188,san clemente,33.427,-117.612,33.2,81,56,0.45,US,1627062609
189,bengkulu,-3.8004,102.2655,24.35,86,76,1.75,ID,1627062831
190,fortuna,40.5982,-124.1573,21.07,71,1,0.89,US,1627062833
191,college,64.8569,-147.8028,18.66,78,75,0.0,US,1627062234
192,itum-kale,42.7356,45.5758,19.04,99,88,0.11,RU,1627062835
193,mahibadhoo,3.7833,72.9667,28.35,75,83,3.76,MV,1627062836
194,dalbandin,28.8947,64.4101,35.56,10,38,2.48,PK,1627062837
195,katsuura,35.1333,140.3,27.28,84,21,0.53,JP,1627062473
196,dryden,49.7833,-92.7503,23.16,83,90,3.09,CA,1627062840
197,moose factory,51.2585,-80.6094,25.0,53,1,4.12,CA,1627062841
198,caranavi,-15.8167,-67.55,26.43,42,0,1.99,BO,1627062842
199,mar del plata,-38.0023,-57.5575,19.51,59,0,2.68,AR,1627062844
200,rocha,-34.4833,-54.3333,21.82,64,6,3.61,UY,1627062845
201,acapulco,16.8634,-99.8901,30.95,64,51,2.07,MX,1627062725
202,longyearbyen,78.2186,15.6401,9.91,66,75,5.14,SJ,1627062847
203,san jose,37.3394,-121.895,29.74,55,20,3.6,US,1627062651
204,torbay,47.6666,-52.7314,17.71,91,75,3.09,CA,1627062850
205,jeremie,18.65,-74.1167,30.21,65,9,3.36,HT,1627062851
206,vanavara,60.34,102.2797,14.55,81,36,0.91,RU,1627062852
207,banda,25.4833,80.3333,32.23,65,99,2.77,IN,1627062853
208,jacareacanga,-6.2222,-57.7528,36.17,44,40,3.6,BR,1627062855
209,poronaysk,49.2167,143.1167,16.14,99,88,0.88,RU,1627062856
210,touros,-5.1989,-35.4608,29.5,62,2,8.67,BR,1627062752
211,castro,-24.7911,-50.0119,22.04,36,0,2.38,BR,1627062859
212,ylojarvi,61.5563,23.5961,18.61,45,0,3.6,FI,1627062861
213,kuytun,54.3419,101.5036,14.05,82,13,1.02,RU,1627062862
214,dhidhdhoo,6.8833,73.1,27.85,79,65,7.16,MV,1627062863
215,cidreira,-30.1811,-50.2056,18.98,65,7,3.54,BR,1627062865
216,bredasdorp,-34.5322,20.0403,10.62,71,0,4.63,ZA,1627062866
217,bathsheba,13.2167,-59.5167,30.34,74,40,7.2,BB,1627062867
218,charters towers,-20.1,146.2667,15.99,85,82,3.02,AU,1627062868
219,jinchang,38.4953,102.1739,26.97,43,0,2.55,CN,1627062870
220,santa isabel do rio negro,-0.4139,-65.0192,29.82,69,28,1.85,BR,1627062871
221,haines junction,60.7522,-137.5108,13.97,58,64,0.51,CA,1627062872
222,buchmany,51.0689,28.0421,18.9,68,93,2.28,UA,1627062873
223,mehamn,71.0357,27.8492,8.1,89,100,13.46,NO,1627062875
224,san jeronimo,-11.9472,-75.2829,16.31,30,19,1.13,PE,1627062876
225,najran,17.4924,44.1277,27.36,45,99,6.63,SA,1627062877
226,maxcanu,20.5833,-89.9833,33.32,32,44,2.91,MX,1627062879
227,appleton,44.2619,-88.4154,30.22,66,65,0.89,US,1627062880
228,oyem,1.5995,11.5793,20.4,92,74,1.31,GA,1627062881
229,kruisfontein,-34.0033,24.7314,8.82,80,87,2.12,ZA,1627062823
230,hutchinson,38.0608,-97.9298,34.18,49,15,0.45,US,1627062749
231,le havre,49.4938,0.1077,27.02,54,0,5.66,FR,1627062885
232,iralaya,15.0,-83.2333,31.05,71,86,5.42,HN,1627062318
233,libenge,3.65,18.6333,23.27,88,98,1.31,CD,1627062887
234,ati,13.2154,18.3353,30.08,48,87,3.14,TD,1627062888
235,domoni,-12.2569,44.5319,24.31,75,39,4.21,KM,1627062890
236,geraldton,-28.7667,114.6,13.23,94,40,3.09,AU,1627062891
237,takoradi,4.8845,-1.7554,24.71,79,66,4.6,GH,1627062892
238,kurilsk,45.2333,147.8833,16.15,89,98,3.53,RU,1627062893
239,pisco,-13.7,-76.2167,18.03,72,40,3.6,PE,1627062895
240,egvekinot,66.3167,-179.1667,5.71,94,85,1.93,RU,1627062896
241,popondetta,-8.7537,148.2534,23.15,95,100,1.2,PG,1627062897
242,san miguelito,9.0333,-79.5,30.91,70,40,1.03,PA,1627062899
243,mgandu,-5.95,34.1333,17.79,46,23,2.86,TZ,1627062387
244,terney,45.0503,136.6092,22.59,89,67,0.95,RU,1627062901
245,khatanga,71.9667,102.5,10.0,82,36,4.16,RU,1627062902
246,tuatapere,-46.1333,167.6833,5.46,91,93,2.61,NZ,1627062904
247,vostok,46.4856,135.8833,20.89,83,50,1.8,RU,1627062874
248,alyangula,-13.8483,136.4192,16.93,94,64,0.0,AU,1627062907
249,marawi,7.9986,124.2928,23.14,88,87,2.6,PH,1627062908
250,virginia beach,36.8529,-75.978,29.5,49,75,2.57,US,1627062827
251,upernavik,72.7868,-56.1549,4.15,97,100,3.71,GL,1627062909
252,coquimbo,-29.9533,-71.3436,11.85,82,90,1.03,CL,1627062665
253,arauco,-37.2463,-73.3175,14.01,63,100,2.35,CL,1627062914
254,bradford,53.7939,-1.7521,22.81,49,40,4.63,GB,1627062915
255,arraial do cabo,-22.9661,-42.0278,24.98,60,0,6.17,BR,1627062916
256,san patricio,28.017,-97.5169,34.05,46,5,8.05,US,1627062918
257,batagay-alyta,67.8006,130.4114,14.99,75,100,1.42,RU,1627062919
258,ilulissat,69.2167,-51.1,2.5,98,100,1.98,GL,1627062920
259,blackwater,-23.5833,148.8833,14.05,60,0,3.39,AU,1627062921
260,solnechnyy,50.7214,136.6319,23.01,86,46,1.75,RU,1627062329
261,seydi,39.4816,62.9137,32.72,13,0,3.83,TM,1627062924
262,laramie,41.3114,-105.5911,27.31,53,96,1.34,US,1627062827
263,am timan,11.0297,20.2827,25.72,69,37,2.24,TD,1627062926
264,hofn,64.2539,-15.2082,12.01,94,90,2.06,IS,1627062927
265,kodiak,57.79,-152.4072,11.05,96,100,8.1,US,1627062929
266,cruzilia,-21.8386,-44.8083,23.73,20,0,4.2,BR,1627062930
267,brigantine,39.4101,-74.3646,28.9,50,1,2.57,US,1627062454
268,marzuq,14.4,46.4667,23.91,77,92,2.78,YE,1627062932
269,matara,5.9485,80.5353,24.63,90,93,4.02,LK,1627062935
270,chingirlau,51.095,54.0814,18.55,86,100,1.47,KZ,1627062936
271,ostrovnoy,68.0531,39.5131,6.55,91,100,6.7,RU,1627062937
272,terrace,54.5163,-128.6035,13.95,88,90,1.54,CA,1627062312
273,mkushi,-13.6202,29.3939,15.89,74,58,4.93,ZM,1627062940
274,taxisco,14.0708,-90.4631,32.6,35,77,1.2,GT,1627062942
275,garden city,42.3256,-83.331,24.01,86,90,2.06,US,1627062736
276,parrita,9.5201,-84.3225,29.59,72,59,2.65,CR,1627062944
277,polewali,-3.4324,119.3435,24.62,90,100,2.29,ID,1627062946
278,roald,62.5833,6.1333,23.98,77,0,5.66,NO,1627062947
279,caloundra,-26.8,153.1333,17.14,96,51,0.45,AU,1627062948
280,mahebourg,-20.4081,57.7,22.16,73,75,3.09,MU,1627062949
281,cayenne,4.9333,-52.3333,28.94,79,40,1.79,GF,1627062412
282,vyara,21.1167,73.4,25.58,91,100,3.6,IN,1627062952
283,titusville,28.6122,-80.8075,36.16,81,70,2.32,US,1627062953
284,waipawa,-41.4122,175.5153,5.35,89,0,1.94,NZ,1627062954
285,ducheng,23.2373,111.5317,27.99,76,35,0.8,CN,1627062956
286,itai,-23.4178,-49.0906,26.45,26,0,1.86,BR,1627062959
287,lovozero,68.005,35.0117,6.01,85,100,7.85,RU,1627062960
288,sao desiderio,-12.3633,-44.9733,31.61,25,54,4.8,BR,1627062962
289,dakar,14.6937,-17.4441,28.49,61,75,5.14,SN,1627062891
290,mugur-aksy,50.35,90.5,11.89,90,80,1.5,RU,1627062965
291,mwene-ditu,-7.0,23.45,25.02,25,44,2.02,CD,1627062966
292,jemnice,49.019,15.5699,24.36,64,89,2.36,CZ,1627062968
293,barrow,71.2906,-156.7887,3.01,87,90,7.72,US,1627062903
294,sarab,38.6066,44.9883,30.36,31,68,5.94,IR,1627062971
295,hasaki,35.7333,140.8333,23.22,86,1,1.15,JP,1627062913
296,kiama,-34.6833,150.8667,12.54,89,76,1.34,AU,1627062707
297,puerto del rosario,28.5004,-13.8627,26.86,61,20,10.29,ES,1627062975
298,general roca,-39.0333,-67.5833,17.22,35,97,6.64,AR,1627062976
299,bom jesus,-9.0744,-44.3586,33.65,24,2,4.54,BR,1627062977
300,nogliki,51.8333,143.1667,17.91,95,90,2.1,RU,1627062978
301,rovaniemi,66.5,25.7167,12.67,66,0,1.54,FI,1627062980
302,tautira,-17.7333,-149.15,23.01,69,7,5.32,PF,1627062981
303,inirida,3.8653,-67.9239,28.65,75,69,1.08,CO,1627062982
304,inta,66.0317,60.1659,10.64,73,71,1.46,RU,1627062415
305,sarahan,31.5167,77.8,18.09,89,77,0.68,IN,1627062985
306,rundu,-17.9333,19.7667,12.61,12,3,3.15,NA,1627062987
307,san quintin,30.4833,-115.95,23.75,69,78,4.12,MX,1627062988
308,bojonegoro,-7.1502,111.8817,24.26,77,13,3.84,ID,1627062990
309,east london,-33.0153,27.9116,9.52,81,20,3.6,ZA,1627062991
310,strezhevoy,60.7333,77.5889,23.99,65,9,4.37,RU,1627062451
311,el tigre,8.8875,-64.2454,30.65,55,80,2.55,VE,1627062990
312,alta floresta,-9.8756,-56.0861,35.9,24,20,4.63,BR,1627062994
313,petropavlovsk-kamchatskiy,53.0452,158.6483,9.33,100,75,0.0,RU,1627062997
314,aguas vermelhas,-15.7472,-41.46,22.26,40,88,4.01,BR,1627062998
315,auki,-8.7676,160.7034,24.92,88,18,1.43,SB,1627062953
316,dalvik,65.9702,-18.5286,18.96,81,100,2.8,IS,1627063000
317,belmonte,-15.8631,-38.8828,26.0,60,86,5.94,BR,1627063002
318,tasiilaq,65.6145,-37.6368,4.48,98,100,1.37,GL,1627063003
319,dingle,10.9995,122.6711,25.93,81,100,5.5,PH,1627063004
320,clyde river,70.4692,-68.5914,3.13,87,90,11.83,CA,1627063005
321,constitucion,-35.3333,-72.4167,15.96,59,94,3.69,CL,1627063007
322,nabire,-3.3667,135.4833,23.72,91,100,1.82,ID,1627062907
323,oakdale,44.963,-92.9649,34.06,53,1,0.89,US,1627063009
324,port hardy,50.6996,-127.4199,13.1,94,90,1.03,CA,1627062420
325,seoul,37.5683,126.9778,26.78,79,0,1.03,KR,1627062754
326,kalmunai,7.4167,81.8167,26.94,67,98,4.99,LK,1627063013
327,port lincoln,-34.7333,135.8667,12.35,78,50,13.64,AU,1627063014
328,asau,46.4333,26.4,21.51,68,78,0.07,RO,1627063015
329,ishigaki,24.3448,124.1572,27.36,94,100,24.52,JP,1627063016
330,marshall,34.3834,-86.3333,32.29,64,1,0.45,US,1627063018
331,mahbubabad,17.6167,80.0167,23.37,89,96,3.28,IN,1627063019
332,nanning,22.8167,108.3167,27.25,92,46,0.42,CN,1627063020
333,sayat,38.7839,63.8803,32.93,13,0,5.0,TM,1627063022
334,ucluelet,48.9329,-125.5528,15.61,82,99,0.45,CA,1627062269
335,panjab,34.388,67.0233,15.57,49,89,1.93,AF,1627063024
336,talnakh,69.4865,88.3972,14.72,48,100,4.56,RU,1627063025
337,khromtau,50.2503,58.4347,23.67,60,100,6.08,KZ,1627063026
338,saldanha,-33.0117,17.9442,10.03,61,0,3.82,ZA,1627062969
339,ust-koksa,50.2696,85.6108,14.13,89,64,0.22,RU,1627063030
340,mabaruma,8.2,-59.7833,28.34,85,97,2.1,GY,1627063031
341,mandalgovi,45.7625,106.2708,20.05,34,91,3.2,MN,1627063033
342,morros,-9.4467,-46.3003,32.83,23,14,4.38,BR,1627063034
343,te anau,-45.4167,167.7167,4.2,93,86,0.57,NZ,1627063035
344,meulaboh,4.1363,96.1285,25.81,86,99,1.64,ID,1627063036
345,ryki,51.6257,21.9327,24.32,72,41,1.72,PL,1627063038
346,bubaque,11.2833,-15.8333,26.87,77,86,6.9,GW,1627063039
347,praia,14.9215,-23.5087,28.3,54,20,9.26,CV,1627063040
348,tilichiki,60.4667,166.1,9.5,91,75,1.15,RU,1627063041
349,maragogi,-9.0122,-35.2225,25.23,74,45,6.03,BR,1627062791
350,ca mau,9.1769,105.15,26.1,85,100,3.25,VN,1627063045
351,chenzhou,25.8,113.0333,24.42,88,2,0.77,CN,1627063046
352,saint-joseph,-21.3667,55.6167,20.21,68,54,2.01,RE,1627063047
353,burlington,39.8835,-74.6413,29.62,49,30,0.45,US,1627063049
354,sangar,63.9242,127.4739,16.11,73,100,0.19,RU,1627063051
355,merauke,-8.4667,140.3333,23.45,84,35,4.98,ID,1627063052
356,hazorasp,41.3194,61.0742,26.91,11,0,4.06,UZ,1627063054
357,gold coast,-28.0,153.4333,15.0,95,48,0.45,AU,1627062920
358,oskemen,49.9565,82.6119,20.98,78,86,3.0,KZ,1627063056
359,chegdomyn,51.1167,133.0167,19.8,97,73,1.82,RU,1627063057
360,luwuk,-0.9516,122.7875,23.53,82,99,2.4,ID,1627063059
361,aquiraz,-3.9014,-38.3911,30.05,64,5,5.9,BR,1627063060
362,aklavik,68.2191,-135.0107,11.4,93,90,2.57,CA,1627062942
363,santa maria,-29.6842,-53.8069,28.61,28,0,3.6,BR,1627063063
364,sakakah,29.9697,40.2064,35.76,20,0,4.3,SA,1627063064
365,avera,33.194,-82.5271,32.81,44,53,2.17,US,1627063066
366,yilan,24.757,121.753,28.06,99,100,5.96,TW,1627063067
367,payakumbuh,-0.2202,100.6308,21.17,95,77,1.62,ID,1627063068
368,yulara,-25.2406,130.9889,6.91,57,1,0.0,AU,1627062986
369,piacabucu,-10.4056,-36.4344,25.68,69,20,4.87,BR,1627062960
370,qasigiannguit,68.8193,-51.1922,3.62,97,100,1.46,GL,1627063072
371,moundou,8.5667,16.0833,23.32,89,99,1.01,TD,1627063073
372,port blair,11.6667,92.75,27.51,84,95,8.75,IN,1627063074
373,balabac,7.9868,117.0645,28.49,81,95,7.5,PH,1627063076
374,colac,-38.3333,143.5833,7.57,92,92,4.96,AU,1627063077
375,kiruna,67.8557,20.2251,9.51,62,90,6.17,SE,1627063078
376,guaruja,-23.9931,-46.2564,30.18,57,0,3.6,BR,1627063079
377,flin flon,54.7682,-101.865,21.91,37,75,8.75,CA,1627062976
378,nishihara,26.1842,127.7558,26.6,94,75,13.89,JP,1627063082
379,bure,10.7,37.0667,13.82,94,100,1.51,ET,1627063084
380,atuntaqui,0.3333,-78.2167,19.9,66,99,2.95,EC,1627063086
381,olafsvik,64.8945,-23.7142,11.26,97,100,4.34,IS,1627063087
382,ust-kuyga,70.0167,135.6,12.84,62,93,2.32,RU,1627063088
383,ingham,42.6,-84.3833,24.97,88,90,4.63,US,1627063089
384,ambilobe,-13.2,49.05,19.94,77,5,1.32,MG,1627063091
385,trindade,-16.6494,-49.4889,27.86,25,24,4.02,BR,1627063092
386,sioux lookout,50.1001,-91.917,24.04,78,90,3.09,CA,1627063039
387,novobohdanivka,47.0819,35.3272,19.53,53,0,2.99,UA,1627063095
388,lexington,37.9887,-84.4777,28.56,51,1,0.89,US,1627062824
389,sosenskiy,54.059,35.9623,18.84,78,72,2.91,RU,1627063098
390,anadyr,64.75,177.4833,13.28,82,40,3.58,RU,1627063100
391,point fortin,10.1833,-61.6833,31.05,73,100,3.99,TT,1627063101
392,dumbraveni,46.2333,24.5667,23.72,54,80,1.22,RO,1627063103
393,tarrafal,15.2833,-23.7667,28.44,72,47,5.61,CV,1627063104
394,khandyga,62.6667,135.6,17.41,70,99,1.27,RU,1627063105
395,samarinda,-0.5,117.15,24.09,97,79,1.33,ID,1627063106
396,corinth,37.9407,22.9573,29.06,44,0,1.39,GR,1627063108
397,vila velha,-20.3297,-40.2925,24.98,54,20,4.63,BR,1627063079
398,ferme-neuve,46.7001,-75.4493,23.88,36,17,1.93,CA,1627063110
399,leh,34.1667,77.5833,20.34,37,47,2.51,IN,1627063111
400,vega baja,18.4444,-66.3877,32.55,83,57,2.24,PR,1627063113
401,gurupi,-11.7292,-49.0686,33.71,22,15,4.1,BR,1627063114
402,hualmay,-11.0964,-77.6139,20.1,71,11,4.82,PE,1627063116
403,nelson bay,-32.7167,152.15,12.05,94,29,2.8,AU,1627063118
404,aswan,24.0934,32.907,38.61,18,0,7.72,EG,1627063119
405,sa kaeo,13.75,102.3333,24.01,95,100,2.99,TH,1627063120
406,half moon bay,37.4636,-122.4286,29.34,65,1,0.0,US,1627063121
407,kurayoshi,35.4333,133.8167,26.9,79,89,1.96,JP,1627063123
408,whyalla,-33.0333,137.5833,9.94,81,90,5.66,AU,1627063124
409,hoquiam,46.9809,-123.8893,21.35,3,2,1.79,US,1627063125
410,general nakar,14.7631,121.635,27.21,84,100,7.05,PH,1627063127
411,brae,60.3964,-1.353,12.95,78,17,3.03,GB,1627063128
412,kodyma,48.0988,29.1246,20.64,67,1,1.9,UA,1627063129
413,omsukchan,62.5333,155.8,8.68,97,100,0.72,RU,1627063131
414,madang,-5.2246,145.7966,24.94,90,95,1.86,PG,1627063132
415,guerrero negro,27.9769,-114.0611,28.01,50,45,2.54,MX,1627063133
416,newport,51.5877,-2.9984,25.65,62,99,6.04,GB,1627063037
417,goderich,43.7501,-81.7165,26.69,46,34,4.12,CA,1627062857
418,lingyuan,41.24,119.4011,20.32,96,35,2.67,CN,1627063138
419,perez,-32.9983,-60.7679,27.25,38,0,3.09,AR,1627063139
420,alice springs,-23.7,133.8833,6.75,57,0,2.57,AU,1627063140
421,plettenberg bay,-34.0527,23.3716,10.61,76,15,3.45,ZA,1627063142
422,tarauaca,-8.1614,-70.7656,35.01,27,56,0.7,BR,1627063143
423,ust-ilimsk,58.0006,102.6619,14.91,84,54,0.91,RU,1627063033
424,sabinas,27.85,-101.1167,33.39,42,36,3.8,MX,1627062870
425,bennettsville,34.6174,-79.6848,32.8,60,40,0.45,US,1627062987
426,mangaluru,12.8667,74.8833,26.48,94,40,1.54,IN,1627063147
427,pangai,-19.8,-174.35,24.06,88,20,3.09,TO,1627063149
428,yerbogachen,61.2767,108.0108,15.16,67,40,1.29,RU,1627063150
429,isparta,38.0,31.0,24.42,42,7,4.98,TR,1627063151
430,natal,-5.795,-35.2094,29.36,61,75,9.77,BR,1627062871
431,asyut,27.181,31.1837,36.1,21,0,4.34,EG,1627062910
432,jiayuguan,39.8167,98.3,27.98,29,15,0.26,CN,1627063155
433,arrifes,37.7667,-25.7,21.14,83,75,7.72,PT,1627063156
434,piranhas,-16.4269,-51.8222,33.48,19,89,3.54,BR,1627063157
435,saurimo,-9.6608,20.3916,20.76,25,81,2.16,AO,1627063160
436,chiredzi,-21.05,31.6667,14.65,46,61,4.58,ZW,1627063161
437,faya,18.3851,42.4509,18.06,86,100,2.8,SA,1627062876
438,grand gaube,-20.0064,57.6608,22.22,74,32,1.34,MU,1627063042
439,itoman,26.1247,127.6694,27.01,94,75,13.89,JP,1627063164
440,sept-iles,50.2001,-66.3821,20.24,84,90,3.58,CA,1627062771
441,korla,41.7597,86.1469,31.15,27,95,1.74,CN,1627063168
442,dalianwan,39.0286,121.695,25.02,88,0,2.0,CN,1627063169
443,yuryuzan,54.8633,58.4219,15.04,87,100,0.75,RU,1627063170
444,ust-nera,64.5667,143.2,11.65,90,97,1.09,RU,1627063172
445,kantilo,20.35,85.1833,26.92,89,100,1.3,IN,1627063173
446,carauari,-4.8828,-66.8958,34.67,33,33,1.77,BR,1627063174
447,solotcha,54.7917,39.8442,14.71,75,75,2.78,RU,1627063175
448,ketchikan,55.3422,-131.6461,12.39,97,100,2.05,US,1627063177
449,tanabe,33.7333,135.3667,23.85,79,91,1.81,JP,1627063178
450,robertsport,6.7533,-11.3686,23.57,94,100,5.87,LR,1627063179
451,cururupu,-1.8283,-44.8683,30.07,55,31,2.38,BR,1627063182
452,havre,49.5833,0.3333,26.43,57,0,5.66,FR,1627063183
453,shenjiamen,29.9576,122.298,25.77,88,100,10.52,CN,1627063184
454,sur,22.5667,59.5289,34.45,53,48,5.57,OM,1627063116
455,belaya gora,68.5333,146.4167,11.01,56,84,2.58,RU,1627063187
456,ahtopol,42.1,27.95,23.26,59,0,3.45,BG,1627063188
457,high level,58.5169,-117.136,19.06,72,75,3.6,CA,1627063189
458,axim,4.8699,-2.2405,24.86,77,66,4.01,GH,1627063190
459,manikpur,25.0667,81.1167,30.67,67,98,2.07,IN,1627063192
460,rio grande,-32.035,-52.0986,27.19,62,9,2.65,BR,1627063134
461,paamiut,61.994,-49.6678,5.94,85,53,2.22,GL,1627063194
462,moussoro,13.6408,16.4901,29.92,54,95,3.86,TD,1627063025
463,ballina,-28.8667,153.5667,11.55,100,20,0.0,AU,1627063196
464,myitkyina,25.3833,97.4,24.15,99,96,0.3,MM,1627063183
465,nichinan,31.6,131.3667,25.29,91,100,6.31,JP,1627063199
466,marsh harbour,26.5412,-77.0636,28.61,70,100,3.15,BS,1627063200
467,languyan,5.2618,120.0807,26.73,84,89,2.39,PH,1627063201
468,prince rupert,54.3161,-130.3201,13.05,94,90,3.6,CA,1627063204
469,mae hong son,19.3003,97.9685,23.67,99,99,1.02,TH,1627063207
470,aleksandro-nevskiy,53.4751,40.2095,19.04,46,80,3.34,RU,1627063208
471,vila franca do campo,37.7167,-25.4333,22.23,70,23,3.54,PT,1627063209
472,mosjoen,65.836,13.1908,13.29,71,75,4.63,NO,1627063211
473,olga,43.7444,135.2892,22.23,95,30,1.03,RU,1627063213
474,shiyan,32.6475,110.7781,23.27,98,95,1.09,CN,1627063214
475,alabino,55.5268,37.0103,18.89,72,0,4.0,RU,1627063216
476,yarmouth,41.7057,-70.2286,27.01,63,17,3.13,US,1627063217
477,honningsvag,70.9821,25.9704,7.86,81,75,13.38,NO,1627063219
478,kyshtovka,56.555,76.6271,18.7,76,51,2.88,RU,1627063221
479,port augusta,-32.5,137.7667,12.06,77,43,5.07,AU,1627063086
480,puerto penasco,31.3167,-113.5333,31.06,77,100,6.26,MX,1627063223
481,vardo,70.3705,31.1107,9.11,81,75,9.77,NO,1627063225
482,pointe michel,15.25,-61.3833,28.86,68,71,5.4,DM,1627063226
483,majene,-3.5403,118.9707,25.13,85,100,6.23,ID,1627063229
484,yar-sale,66.8333,70.8333,9.72,92,96,12.76,RU,1627063230
485,metro,-5.1131,105.3067,23.43,94,42,2.08,ID,1627063232
486,husavik,66.0449,-17.3389,18.95,77,100,1.06,IS,1627062967
487,qaqortoq,60.7167,-46.0333,9.06,69,9,6.17,GL,1627063063
488,padang,-0.9492,100.3543,25.28,86,43,1.47,ID,1627063236
489,erzin,36.9559,36.2,28.29,86,22,2.51,TR,1627063238
490,port hedland,-20.3167,118.5667,19.03,48,3,2.57,AU,1627063239
491,jatai,-17.8814,-51.7144,29.7,19,0,4.21,BR,1627063241
492,fort nelson,58.8053,-122.7002,20.15,42,98,3.56,CA,1627063215
493,wainwright,52.839,-110.8572,23.34,22,18,10.6,CA,1627063244
494,rabo de peixe,37.8,-25.5833,21.73,83,75,7.72,PT,1627063246
495,perth,-31.9333,115.8333,14.26,79,75,2.57,AU,1627063163
496,nouadhibou,20.931,-17.0347,20.18,88,0,9.87,MR,1627063248
497,yatou,37.15,122.3833,22.98,78,6,0.64,CN,1627063250
498,tabas,33.5959,56.9244,37.38,11,4,5.99,IR,1627063251
499,mae sai,20.4335,99.8762,23.58,92,100,0.76,TH,1627063252
500,van wert,40.8695,-84.5841,25.62,88,75,3.6,US,1627063254
501,saint-quentin,49.8333,3.3333,24.53,78,81,4.21,FR,1627063255
502,edremit,39.5961,27.0244,22.89,56,0,5.63,TR,1627063257
503,mbini,1.574,9.6134,24.96,80,75,5.07,GQ,1627063258
504,aktau,43.65,51.2,27.32,61,47,4.13,KZ,1627063259
505,nemuro,43.3236,145.575,16.21,95,87,4.27,JP,1627063261
506,ust-maya,60.4167,134.5333,16.72,81,89,1.78,RU,1627063262
507,yaan,7.3833,8.5667,22.58,94,99,1.39,NG,1627063264
508,yumen,40.2833,97.2,27.68,35,37,6.74,CN,1627063265
509,dunedin,-45.8742,170.5036,7.11,78,55,1.76,NZ,1627063190
510,prabumulih,-3.45,104.25,23.08,98,87,1.37,ID,1627063268
511,bell ville,-32.6259,-62.6887,24.89,30,59,3.58,AR,1627063269
512,kousseri,12.0769,15.0306,28.98,65,20,4.12,CM,1627063169
513,umm lajj,25.0213,37.2685,31.19,53,0,4.15,SA,1627063272
514,daru,-9.0763,143.2092,24.41,85,100,4.38,PG,1627063273
515,aasiaat,68.7098,-52.8699,3.68,94,100,7.26,GL,1627063275
516,kupang,-10.1667,123.5833,21.88,80,4,3.2,ID,1627063268
517,bandarbeyla,9.4942,50.8122,24.98,81,39,16.23,SO,1627063277
518,chifeng,42.2683,118.9636,22.65,74,19,3.94,CN,1627063214
519,tadine,-21.55,167.8833,21.25,87,100,5.28,NC,1627063279
520,linxia,35.6003,103.2064,19.25,79,18,1.23,CN,1627063281
521,antequera,37.0194,-4.5612,35.53,17,17,3.78,ES,1627063215
522,mubi,10.2676,13.2644,22.41,85,88,1.71,NG,1627063284
523,komsomolskiy,40.4272,71.7189,28.4,34,41,2.06,UZ,1627063285
524,coahuayana,18.7333,-103.6833,33.63,56,94,1.6,MX,1627063288
525,hovd,48.0056,91.6419,22.15,44,81,2.72,MN,1627062997
526,puerto madero,14.7208,-92.4215,29.47,64,93,2.65,MX,1627063290
527,magadan,59.5667,150.8,11.59,91,100,0.74,RU,1627063292
528,kerema,-7.9631,145.7785,24.94,89,100,1.4,PG,1627063293
529,kushiro,42.975,144.3747,17.06,98,45,1.94,JP,1627063295
530,rosrath,50.8956,7.1818,26.62,46,0,1.54,DE,1627063297
531,jinzhou,41.1078,121.1417,22.28,94,44,2.95,CN,1627063084
532,orotukan,62.2667,151.7,11.41,98,100,1.27,RU,1627063299
533,parfino,57.9731,31.6481,15.61,62,91,1.79,RU,1627063300
534,marechal deodoro,-9.7103,-35.895,26.67,65,17,5.12,BR,1627063302
535,inhambane,-23.865,35.3833,16.15,69,68,5.67,MZ,1627063303
536,port-gentil,-0.7193,8.7815,24.98,73,90,4.12,GA,1627063165
537,hampton,37.0299,-76.3452,29.54,47,75,3.13,US,1627063009
538,fare,-16.7,-151.0167,25.37,67,76,6.9,PF,1627063306
539,saint-pierre,-21.3393,55.4781,20.82,68,0,4.12,RE,1627063309
540,wajir,1.7471,40.0573,28.93,37,15,7.56,KE,1627063311
541,chokwe,-24.5333,32.9833,12.73,66,32,2.37,MZ,1627063312
542,verkhnetulomskiy,68.6073,31.7962,8.07,75,100,5.26,RU,1627063314
543,nome,64.5011,-165.4064,9.53,85,23,3.51,US,1627063315
544,snezhnogorsk,69.1933,33.2531,7.88,76,100,10.21,RU,1627063061
545,tolstoy-yurt,43.4444,45.7722,21.18,94,75,3.0,RU,1627063317
546,ihlow,51.8833,13.3333,25.19,47,40,2.06,DE,1627063319
547,fallon,39.4735,-118.7774,31.36,13,9,2.77,US,1627063080
548,zhigansk,66.7697,123.3711,15.15,61,22,2.72,RU,1627063321
549,luena,-11.7833,19.9167,16.11,26,99,1.78,AO,1627063322
550,karratha,-20.7377,116.8463,21.65,38,4,4.76,AU,1627063324
551,andrews,32.3187,-102.5457,32.93,39,1,3.6,US,1627063325
552,saint anthony,45.0205,-93.218,34.35,48,1,1.34,US,1627063326
553,walvis bay,-22.9575,14.5053,15.61,32,0,6.37,NA,1627063328
554,carbonia,39.1672,8.5222,28.8,38,0,0.77,IT,1627063329
555,pedernales,18.0384,-71.744,31.71,54,38,2.31,DO,1627063330
556,timbauba,-7.5053,-35.3183,25.35,72,61,7.64,BR,1627063332
557,suntar,62.1444,117.6319,14.46,90,94,2.36,RU,1627063333
558,makrana,27.05,74.7167,26.7,82,100,3.85,IN,1627063335
559,turukhansk,65.8167,87.9833,17.96,73,64,6.72,RU,1627063336
560,urcos,-13.6861,-71.6228,20.94,26,1,4.14,PE,1627063337
561,nador,35.174,-2.9287,26.14,73,20,5.66,MA,1627063338
562,saint-augustin,51.226,-58.6502,10.32,86,100,5.7,CA,1627063341
563,angoram,-4.0625,144.0661,23.1,99,100,0.96,PG,1627063342
564,alcaniz,41.05,-0.1333,32.08,17,93,3.72,ES,1627063343
565,louis trichardt,-23.0439,29.9032,9.75,40,0,4.05,ZA,1627063248
566,san policarpo,12.1791,125.5072,27.63,74,100,5.73,PH,1627063346
567,impfondo,1.6381,18.0667,25.02,72,100,1.05,CG,1627063347
568,caxias,38.7031,-9.2767,23.66,62,20,1.79,PT,1627063350
569,xinqing,48.2333,129.5,20.97,90,11,1.94,CN,1627063351
570,morro bay,35.3658,-120.8499,30.88,58,44,1.79,US,1627063352
571,kimbe,-5.5502,150.1429,23.9,93,95,1.73,PG,1627063355
572,yumbing,9.2393,124.6578,28.04,76,68,6.24,PH,1627063356
573,norman wells,65.282,-126.8329,15.02,88,90,5.14,CA,1627063132
574,sao filipe,14.8961,-24.4956,22.97,78,26,4.71,CV,1627063360
575,ritchie,-29.038,24.6028,5.07,34,0,4.98,ZA,1627063362
576,klaksvik,62.2266,-6.589,11.51,88,99,8.17,FO,1627063363
577,castelldefels,41.2779,1.9703,32.82,69,0,2.68,ES,1627063364
578,zhuhai,22.2769,113.5678,30.59,84,20,3.09,CN,1627063244
579,canutama,-6.5339,-64.3831,36.2,25,36,1.92,BR,1627063368
