,City,Latitude,Longitude,Max Temperature (Â°C),Humidity (%),Cloudiness (%),Wind Speed (MPH),Country,Date
0,jamestown,42.097,-79.2353,22.62,51,1,2.24,US,1626994182
1,mataura,-46.1927,168.8643,6.38,87,12,1.32,NZ,1626994183
2,the valley,18.217,-63.0578,28.92,83,20,6.69,AI,1626993643
3,bredasdorp,-34.5322,20.0403,6.62,93,29,1.03,ZA,1626994185
4,new norfolk,-42.7826,147.0587,9.95,72,76,0.89,AU,1626994187
5,masty,53.4122,24.5387,15.71,69,26,2.39,BY,1626994188
6,kaitangata,-46.2817,169.8464,8.29,72,7,2.53,NZ,1626994189
7,punta arenas,-53.15,-70.9167,3.06,87,40,2.57,CL,1626993967
8,upernavik,72.7868,-56.1549,4.82,94,100,1.34,GL,1626994192
9,rikitea,-23.1203,-134.9692,22.99,73,11,8.21,PF,1626994193
10,tasiilaq,65.6145,-37.6368,8.09,97,100,1.4,GL,1626994194
11,nikolskoye,59.7035,30.7861,17.11,76,96,2.25,RU,1626994195
12,mar del plata,-38.0023,-57.5575,14.37,72,0,2.68,AR,1626994138
13,piacabucu,-10.4056,-36.4344,23.16,80,0,4.59,BR,1626994198
14,cockburn town,21.4612,-71.1419,27.76,83,75,8.05,TC,1626994199
15,ushuaia,-54.8,-68.3,4.81,60,75,1.54,AR,1626993721
16,puerto leguizamo,-0.1934,-74.7819,22.23,95,74,0.87,CO,1626994201
17,bonavista,48.6499,-53.1147,11.18,90,76,4.65,CA,1626994204
18,cayenne,4.9333,-52.3333,27.83,83,90,1.54,GF,1626994205
19,atuona,-9.8,-139.0333,25.28,71,89,4.18,PF,1626994206
20,port alfred,-33.5906,26.891,11.05,70,95,9.44,ZA,1626994208
21,ebolowa,2.9,11.15,20.05,99,97,0.9,CM,1626994209
22,carnarvon,-24.8667,113.6333,14.04,80,6,2.06,AU,1626994210
23,dikson,73.5069,80.5464,3.94,96,100,9.38,RU,1626994211
24,yakima,46.4665,-120.6678,29.75,20,1,0.0,US,1626994213
25,hermanus,-34.4187,19.2345,7.17,78,31,4.64,ZA,1626994214
26,cidreira,-30.1811,-50.2056,14.87,83,5,6.67,BR,1626994215
27,iwanai,42.9744,140.5089,25.75,73,93,1.61,JP,1626994217
28,fare,-16.7,-151.0167,25.39,67,41,6.43,PF,1626994218
29,shelbyville,35.4834,-86.4603,31.81,52,1,2.57,US,1626994064
30,luoyang,34.6836,112.4536,22.08,94,100,3.69,CN,1626993932
31,busselton,-33.65,115.3333,12.27,66,100,10.53,AU,1626994223
32,half moon bay,37.4636,-122.4286,33.4,70,1,7.2,US,1626993929
33,marquette,46.5333,-87.6335,22.68,61,85,3.37,US,1626994225
34,mbaiki,3.8678,17.9892,20.53,98,100,0.42,CF,1626994227
35,kodiak,57.79,-152.4072,12.73,88,90,3.6,US,1626994229
36,talara,-4.5772,-81.2719,19.0,84,62,9.07,PE,1626994232
37,hermosillo,29.0667,-110.9667,39.82,36,0,1.79,MX,1626993896
38,hobart,-42.8794,147.3294,10.14,70,40,1.34,AU,1626994235
39,pevek,69.7008,170.3133,4.93,71,67,2.11,RU,1626994237
40,cape town,-33.9258,18.4232,8.39,75,0,3.6,ZA,1626994020
41,talnakh,69.4865,88.3972,13.57,73,57,1.69,RU,1626994239
42,cherskiy,68.75,161.3,13.99,78,99,1.44,RU,1626994240
43,chateauroux,46.8167,1.7,19.0,72,0,3.09,FR,1626994242
44,marsa matruh,31.3525,27.2453,26.11,83,0,5.14,EG,1626994243
45,broome,42.2506,-75.833,22.87,60,1,0.89,US,1626993638
46,takoradi,4.8845,-1.7554,23.96,85,26,3.75,GH,1626994245
47,manggar,-2.8833,108.2667,27.45,75,97,5.06,ID,1626994247
48,vaini,-21.2,-175.2,26.09,83,20,5.14,TO,1626994248
49,lavrentiya,65.5833,-171.0,5.46,81,100,1.56,RU,1626994249
50,gravdal,68.1214,13.5031,9.22,79,100,5.04,NO,1626994250
51,hithadhoo,-0.6,73.0833,26.44,81,100,4.81,MV,1626994252
52,kamien pomorski,53.9685,14.7726,17.75,81,3,2.0,PL,1626994253
53,vila franca do campo,37.7167,-25.4333,19.23,81,53,2.37,PT,1626994254
54,castro,-24.7911,-50.0119,9.91,58,0,1.56,BR,1626994256
55,smithers,54.7804,-127.1743,19.18,45,75,3.6,CA,1626994257
56,hilo,19.7297,-155.09,26.85,78,75,6.69,US,1626994176
57,albany,42.6001,-73.9662,24.32,59,98,0.45,US,1626994128
58,baykalsk,51.5058,104.1469,16.11,91,95,1.84,RU,1626994260
59,yellowknife,62.456,-114.3525,21.29,64,75,5.14,CA,1626993989
60,vangaindrano,-23.35,47.6,17.6,95,17,2.53,MG,1626994263
61,nanortalik,60.1432,-45.2371,7.03,90,85,3.72,GL,1626994264
62,puerto ayora,-0.7393,-90.3518,25.98,86,95,2.68,EC,1626994199
63,khatanga,71.9667,102.5,15.02,73,75,4.28,RU,1626994266
64,mehamn,71.0357,27.8492,6.24,82,100,10.68,NO,1626994268
65,katsuura,35.1333,140.3,29.06,74,16,1.82,JP,1626994269
66,shingu,33.7333,135.9833,27.17,77,87,2.53,JP,1626994272
67,muisne,0.6,-80.0333,28.06,82,86,4.46,EC,1626994273
68,turayf,31.6725,38.6637,25.14,69,0,5.66,SA,1626994274
69,jeremie,18.65,-74.1167,28.29,75,85,2.02,HT,1626994276
70,alexandria,31.2156,29.9553,27.98,65,0,3.6,EG,1626994277
71,pemangkat,1.1667,108.9667,26.07,83,99,3.25,ID,1626994278
72,cabo san lucas,22.8909,-109.9124,38.62,64,1,4.09,MX,1626994046
73,port hedland,-20.3167,118.5667,15.03,88,65,1.54,AU,1626994280
74,dhupgari,26.5858,89.0145,25.48,96,41,4.0,IN,1626994282
75,gazanjyk,39.2446,55.5154,29.83,17,37,3.06,TM,1626994283
76,chokurdakh,70.6333,147.9167,9.64,55,1,3.82,RU,1626994284
77,longyearbyen,78.2186,15.6401,5.73,80,46,1.49,SJ,1626994286
78,korla,41.7597,86.1469,30.48,20,95,2.17,CN,1626994287
79,fort nelson,58.8053,-122.7002,18.77,77,90,3.6,CA,1626994288
80,tuktoyaktuk,69.4541,-133.0374,11.0,93,90,6.17,CA,1626994289
81,atar,20.5169,-13.0499,30.71,17,4,1.91,MR,1626993732
82,puerto ayacucho,5.6639,-67.6236,24.89,90,90,1.26,VE,1626994292
83,san patricio,28.017,-97.5169,31.94,57,51,6.86,US,1626994293
84,lompoc,34.6391,-120.4579,30.31,71,75,7.2,US,1626994294
85,abbeville,50.1,1.8333,16.39,79,15,2.71,FR,1626994296
86,bethel,41.3712,-73.414,25.98,75,100,0.45,US,1626994297
87,galway,53.2719,-9.0489,22.97,86,100,2.12,IE,1626994014
88,aranos,-24.1333,19.1167,2.27,24,0,4.37,NA,1626994299
89,zalantun,48.0,122.7167,23.55,89,91,2.19,CN,1626994015
90,huntsville,34.7304,-86.5861,31.23,73,20,0.45,US,1626994110
91,turukhansk,65.8167,87.9833,15.19,93,100,1.67,RU,1626994303
92,alyangula,-13.8483,136.4192,16.93,94,24,0.0,AU,1626994304
93,berlevag,70.8578,29.0864,6.64,83,100,12.46,NO,1626994305
94,avarua,-21.2078,-159.775,27.03,74,40,5.66,CK,1626994307
95,saint-philippe,-21.3585,55.7679,19.75,76,42,5.69,RE,1626994308
96,yuzhnyy,53.2542,83.6936,17.21,77,0,4.0,RU,1626994309
97,alofi,-19.0595,-169.9187,25.94,89,75,5.14,NU,1626994310
98,lyaskelya,61.7667,31.0167,11.64,86,58,2.79,RU,1626994312
99,champerico,14.3,-91.9167,31.69,73,85,3.7,GT,1626994313
100,marsh harbour,26.5412,-77.0636,28.63,72,100,3.21,BS,1626994314
101,sokoto,13.0609,5.239,28.68,60,96,6.23,NG,1626994316
102,barrow,71.2906,-156.7887,3.01,87,90,5.66,US,1626994318
103,latung,5.5,120.8833,28.75,79,92,7.45,PH,1626994320
104,maceio,-9.6658,-35.7353,24.69,78,40,2.57,BR,1626994133
105,guerrero negro,27.9769,-114.0611,26.87,55,40,6.39,MX,1626994323
106,estacion coahuila,32.1939,-115.0017,43.87,31,22,9.13,MX,1626994324
107,alakurtti,66.9672,30.3491,7.02,86,30,3.23,RU,1626994325
108,umm kaddadah,13.6017,26.6876,28.99,50,46,5.09,SD,1626994327
109,chumikan,54.7183,135.315,20.81,71,97,0.18,RU,1626994328
110,qaanaaq,77.484,-69.3632,7.42,64,35,0.81,GL,1626994329
111,lebu,-37.6167,-73.65,10.07,89,100,2.74,CL,1626994089
112,dudinka,69.4058,86.1778,11.32,80,41,3.27,RU,1626994331
113,svetlogorsk,52.6333,29.7333,12.71,83,0,2.7,BY,1626994333
114,hervey bay,-25.2986,152.8535,13.06,76,39,1.77,AU,1626994334
115,necochea,-38.5473,-58.7368,13.35,67,100,4.8,AR,1626994336
116,touros,-5.1989,-35.4608,25.5,82,42,6.75,BR,1626994338
117,thompson,55.7435,-97.8558,27.09,54,40,4.12,CA,1626994339
118,lorengau,-2.0226,147.2712,28.29,79,45,2.66,PG,1626994341
119,vicuna,-30.0319,-70.7081,6.85,20,5,0.69,CL,1626994343
120,yablonovo,50.8523,37.3574,14.92,63,0,3.95,RU,1626994344
121,tolga,34.7222,5.3785,32.45,22,0,2.48,DZ,1626994345
122,marfino,55.7028,37.3822,15.49,69,0,3.0,RU,1626994346
123,vardo,70.3705,31.1107,7.28,81,100,13.66,NO,1626994348
124,catalao,-18.1658,-47.9464,20.45,41,11,1.98,BR,1626994112
125,lumphat,13.4878,106.9816,22.8,99,100,0.86,KH,1626994350
126,saskylakh,71.9167,114.0833,16.3,73,66,2.89,RU,1626994351
127,iqaluit,63.7506,-68.5145,10.85,87,90,5.36,CA,1626994353
128,taltal,-25.4,-70.4833,14.52,76,23,2.13,CL,1626994091
129,bluff,-46.6,168.3333,7.11,72,26,5.39,NZ,1626994355
130,luderitz,-26.6481,15.1594,13.96,34,4,4.42,NA,1626994356
131,airai,-8.9266,125.4092,15.15,38,8,1.06,TL,1626994358
132,caucaia,-3.7361,-38.6531,28.93,76,40,7.2,BR,1626994360
133,waingapu,-9.6567,120.2641,22.6,68,6,2.05,ID,1626994361
134,saldanha,-33.0117,17.9442,5.03,74,2,4.31,ZA,1626994363
135,pangnirtung,66.1451,-65.7125,8.0,87,75,8.23,CA,1626994364
136,antsohihy,-14.8796,47.9875,19.09,72,0,2.84,MG,1626994365
137,deputatskiy,69.3,139.9,13.18,61,77,2.09,RU,1626994367
138,dunedin,-45.8742,170.5036,8.59,66,5,1.86,NZ,1626994369
139,bograd,54.2344,90.8328,14.86,84,89,2.16,RU,1626994370
140,tiksi,71.6872,128.8694,6.62,75,100,3.05,RU,1626994371
141,lakes entrance,-37.8811,147.981,9.21,61,100,2.8,AU,1626994374
142,port elizabeth,-33.918,25.5701,10.16,71,90,4.63,ZA,1626994375
143,killybegs,54.6333,-8.45,21.92,71,100,2.81,IE,1626994376
144,codrington,-38.2667,141.9667,5.69,95,100,4.17,AU,1626994377
145,hami,42.8,93.45,32.39,28,97,11.05,CN,1626994379
146,mahebourg,-20.4081,57.7,21.16,73,40,5.14,MU,1626994380
147,grajau,-5.8194,-46.1386,26.78,37,33,1.95,BR,1626994382
148,arraial do cabo,-22.9661,-42.0278,16.98,88,0,0.0,BR,1626994208
149,chuy,-33.6971,-53.4616,10.06,77,87,2.6,UY,1626994385
150,torbay,47.6666,-52.7314,11.43,99,90,5.66,CA,1626994386
151,silver city,32.7701,-108.2803,28.98,45,90,2.24,US,1626994387
152,sokolo,14.7328,-6.1219,29.28,61,71,7.63,ML,1626994390
153,manta,-0.95,-80.7333,25.88,73,0,7.72,EC,1626994391
154,udachnyy,66.4167,112.4,18.49,57,66,3.49,RU,1626994392
155,lagoa,39.05,-27.9833,19.7,76,1,4.42,PT,1626994393
156,teresina,-5.0892,-42.8019,29.84,51,0,1.03,BR,1626994355
157,anloga,5.7947,0.8973,25.12,83,67,6.9,GH,1626994396
158,saint anthony,45.0205,-93.218,30.58,62,90,1.34,US,1626994397
159,yulara,-25.2406,130.9889,5.91,81,3,3.6,AU,1626994398
160,kericho,-0.3677,35.2831,14.52,85,59,1.25,KE,1626994400
161,ryotsu,38.0833,138.4333,26.98,78,50,0.13,JP,1626994401
162,ribeira grande,38.5167,-28.7,19.22,77,20,3.6,PT,1626994402
163,acapulco,16.8634,-99.8901,30.89,64,26,3.14,MX,1626994362
164,roald,62.5833,6.1333,13.84,87,90,4.12,NO,1626994405
165,kapaa,22.0752,-159.319,26.22,73,86,1.34,US,1626994406
166,kijang,35.2442,129.2139,24.85,85,100,3.97,KR,1626994407
167,samarai,-10.6167,150.6667,25.79,84,100,6.15,PG,1626994408
168,general roca,-39.0333,-67.5833,15.22,32,97,1.62,AR,1626994410
169,la asuncion,11.0333,-63.8628,21.85,100,100,8.75,VE,1626994411
170,ostersund,63.1792,14.6357,10.34,76,90,7.72,SE,1626994412
171,emerald,-23.5333,148.1667,13.52,71,40,2.57,AU,1626994414
172,kodinsk,58.6881,99.1844,14.1,93,8,1.17,RU,1626994415
173,yarmouth,41.7057,-70.2286,23.43,68,1,0.45,US,1626994416
174,jiwani,25.05,61.7417,29.66,85,0,3.24,PK,1626994417
175,butaritari,3.0707,172.7902,28.83,74,39,7.02,KI,1626994419
176,ulladulla,-35.35,150.4667,12.15,59,100,1.94,AU,1626994420
177,challans,46.8436,-1.8749,23.11,49,47,6.83,FR,1626994421
178,faanui,-16.4833,-151.75,25.65,67,41,6.86,PF,1626994422
179,swan hill,-35.3378,143.5544,6.53,95,100,2.73,AU,1626994424
180,jiuquan,39.7432,98.5174,25.2,39,27,1.29,CN,1626994425
181,son la,21.3167,103.9,21.07,99,100,1.07,VN,1626994426
182,northam,51.0333,-4.2167,21.33,77,95,3.81,GB,1626994428
183,celestun,20.8667,-90.4,31.68,59,2,8.61,MX,1626994429
184,sinnamary,5.3833,-52.95,26.65,83,21,4.51,GF,1626994430
185,wageningen,51.9667,5.6667,16.03,85,0,2.57,NL,1626994431
186,urucara,-2.5364,-57.76,27.07,68,65,0.8,BR,1626994433
187,sobolevo,54.4299,31.8996,12.13,71,26,3.03,RU,1626994434
188,georgetown,5.4112,100.3354,28.86,86,20,2.24,MY,1626994162
189,miles city,46.4083,-105.8406,31.05,38,81,9.08,US,1626994439
190,bindura,-17.3019,31.3306,12.72,43,3,1.23,ZW,1626994440
191,bamiantong,44.9333,130.5333,26.79,73,91,1.7,CN,1626994441
192,tabou,4.423,-7.3528,24.7,81,100,4.75,CI,1626994442
193,paragominas,-2.9667,-47.4833,24.26,62,46,1.97,BR,1626994268
194,east london,-33.0153,27.9116,10.81,70,99,10.0,ZA,1626994445
195,hasaki,35.7333,140.8333,27.94,73,43,1.96,JP,1626994447
196,rieti,42.4072,12.8592,24.35,67,36,4.12,IT,1626994448
197,komsomolskiy,40.4272,71.7189,23.68,40,1,3.09,UZ,1626994450
198,general cepeda,25.3833,-101.45,21.67,51,96,3.99,MX,1626994451
199,kruisfontein,-34.0033,24.7314,6.6,83,92,2.68,ZA,1626994452
200,adrar,20.5022,-10.0711,33.23,13,11,4.46,MR,1626994454
201,coihaique,-45.5752,-72.0662,4.97,75,90,2.06,CL,1626994455
202,pogar,52.554,33.2591,12.47,70,1,2.75,RU,1626994456
203,birao,10.2849,22.7882,20.72,93,81,1.17,CF,1626994457
204,bengkulu,-3.8004,102.2655,23.77,86,63,1.72,ID,1626994459
205,karpathos,35.507,27.2132,25.99,67,0,10.07,GR,1626994460
206,bardiyah,31.7561,25.0865,25.89,83,0,6.09,LY,1626994461
207,mount gambier,-37.8333,140.7667,5.95,93,90,3.6,AU,1626994463
208,nuevo casas grandes,30.4167,-107.9167,30.97,26,85,2.68,MX,1626994464
209,te anau,-45.4167,167.7167,5.63,82,36,0.51,NZ,1626994319
210,miri,4.4148,114.0089,24.08,94,40,1.03,MY,1626994377
211,ko samui,9.5357,99.9357,28.56,75,100,8.28,TH,1626994468
212,at-bashi,41.1702,75.8106,11.12,54,5,0.46,KG,1626994470
213,nouadhibou,20.931,-17.0347,19.99,88,0,7.2,MR,1626994471
214,amalapuram,16.5833,82.0167,23.57,92,100,5.02,IN,1626994472
215,knokke-heist,51.3333,3.3333,17.25,78,0,0.45,BE,1626994473
216,provideniya,64.3833,-173.3,7.06,76,75,6.0,RU,1626994476
217,shenjiamen,29.9576,122.298,26.08,86,62,10.01,CN,1626994478
218,balkhash,46.844,74.9804,22.12,58,67,6.65,KZ,1626994479
219,leshukonskoye,64.8989,45.7622,6.42,99,74,2.0,RU,1626994481
220,manzhouli,49.6,117.4333,19.51,86,77,4.54,CN,1626994482
221,high rock,26.6208,-78.2833,30.01,71,100,2.84,BS,1626994483
222,columbus,39.9612,-82.9988,26.38,53,1,3.09,US,1626994448
223,malakal,9.5334,31.6605,23.04,91,100,1.56,SS,1626994486
224,qarqin,37.4185,66.0436,29.63,17,0,2.26,AF,1626994487
225,senno,59.5336,33.9167,11.26,97,72,2.29,RU,1626994488
226,honiara,-9.4333,159.95,29.36,67,55,1.59,SB,1626994490
227,stulovo,58.7225,50.1439,8.79,77,3,1.28,RU,1626994492
228,skelleftea,64.7507,20.9528,13.2,54,21,0.45,SE,1626994494
229,kavaratti,10.5669,72.642,27.52,80,100,11.59,IN,1626994495
230,fortuna,40.5982,-124.1573,30.66,64,1,1.34,US,1626994497
231,kapit,2.0167,112.9333,22.84,89,100,0.46,MY,1626994498
232,marzuq,14.4,46.4667,25.69,55,55,1.93,YE,1626994499
233,vallenar,-28.5708,-70.7581,17.1,45,7,1.11,CL,1626994501
234,saint petersburg,59.8944,30.2642,17.25,67,0,4.0,RU,1626994331
235,faya,18.3851,42.4509,16.06,76,99,4.0,SA,1626994507
236,suntar,62.1444,117.6319,20.89,65,48,1.47,RU,1626994508
237,charlestown,-32.95,151.6667,11.52,83,99,0.45,AU,1626994510
238,saint george,37.1041,-113.5841,34.1,40,1,1.34,US,1626994261
239,oranjemund,-28.55,16.4333,11.94,53,0,4.38,NA,1626994512
240,erenhot,43.6475,111.9767,26.46,44,80,3.58,CN,1626994513
241,sokoni,-6.4333,39.55,24.51,78,6,6.4,TZ,1626994515
242,bathsheba,13.2167,-59.5167,28.34,78,40,7.72,BB,1626994516
243,charters towers,-20.1,146.2667,18.74,68,73,5.34,AU,1626994517
244,villa maria,-32.4075,-63.2402,13.93,48,19,3.96,AR,1626994519
245,tahe,52.3333,124.7333,23.36,89,44,2.32,CN,1626994521
246,podporozhye,60.9112,34.1706,9.79,98,91,2.09,RU,1626994522
247,severo-kurilsk,50.6789,156.125,12.89,84,63,1.34,RU,1626994523
248,loandjili,-4.7561,11.8578,22.06,94,75,1.54,CG,1626994525
249,sao felix do xingu,-6.6447,-51.995,29.14,39,74,0.55,BR,1626994526
250,lebedinyy,58.5167,125.5167,19.7,68,99,1.63,RU,1626994527
251,coquimbo,-29.9533,-71.3436,10.85,87,90,2.06,CL,1626994240
252,sunel,24.3667,75.9667,27.05,73,100,4.51,IN,1626994529
253,amapa,1.0,-52.0,22.52,98,100,1.09,BR,1626994531
254,clyde river,70.4692,-68.5914,3.13,100,90,2.57,CA,1626994532
255,bomet,-0.7813,35.3416,11.75,83,38,1.33,KE,1626994533
256,zhezkazgan,47.8043,67.7144,22.32,42,0,3.96,KZ,1626994535
257,massape,-3.5228,-40.3428,25.39,69,27,2.49,BR,1626994536
258,dawson creek,55.7666,-120.2362,18.64,45,40,12.35,CA,1626994537
259,henties bay,-22.116,14.2845,12.14,73,0,3.18,NA,1626994538
260,saint-joseph,-21.3667,55.6167,19.2,74,29,5.21,RE,1626994540
261,namibe,-15.1961,12.1522,18.74,75,1,1.79,AO,1626994541
262,victoria,22.2855,114.1577,28.47,90,99,2.24,HK,1626994542
263,benjamin aceval,-24.9667,-57.5667,23.11,36,0,3.1,PY,1626994544
264,isangel,-19.55,169.2667,25.06,88,20,0.0,VU,1626994545
265,katghora,22.5,82.55,26.1,88,62,1.01,IN,1626994546
266,el rusio,14.4667,-86.3667,29.45,40,62,5.01,HN,1626994547
267,kalabo,-14.97,22.6814,13.1,25,50,4.51,ZM,1626994549
268,tupiza,-21.45,-65.7167,14.14,16,0,2.56,BO,1626994551
269,tancanhuitz,21.6,-98.9667,29.28,68,99,1.57,MX,1626994552
270,borisoglebskiy,57.2586,39.1508,14.8,71,100,3.73,RU,1626994554
271,valparaiso,-33.0393,-71.6273,13.13,82,75,1.03,CL,1626994351
272,coshocton,40.272,-81.8596,25.55,60,80,0.45,US,1626994556
273,leningradskiy,69.3833,178.4167,4.52,82,83,4.71,RU,1626994557
274,castro-urdiales,43.3829,-3.2204,21.12,84,34,3.1,ES,1626994559
275,bara,10.3744,10.7288,23.08,90,100,4.42,NG,1626994560
276,dao,11.3937,122.6856,26.19,81,100,4.09,PH,1626994561
277,zambezi,-13.5432,23.1047,11.72,25,5,3.17,ZM,1626994564
278,ambilobe,-13.2,49.05,17.69,71,0,1.59,MG,1626994565
279,narsaq,60.9167,-46.05,7.9,93,70,3.05,GL,1626994566
280,mecca,21.4267,39.8261,30.52,48,80,4.02,SA,1626994336
281,kieta,-6.2167,155.6333,28.51,76,57,2.1,PG,1626994569
282,molos,38.8167,22.65,23.87,65,4,0.51,GR,1626994570
283,schenectady,42.8334,-74.0829,22.27,65,97,4.64,US,1626994571
284,skibbereen,51.55,-9.2667,18.89,91,72,4.99,IE,1626994573
285,kandalaksha,67.162,32.4123,7.3,86,60,4.53,RU,1626994575
286,christchurch,-43.5333,172.6333,9.44,85,2,0.89,NZ,1626994318
287,srednekolymsk,67.45,153.6833,17.9,46,23,4.62,RU,1626994577
288,esperance,-33.8667,121.9,10.91,68,24,9.33,AU,1626994578
289,pitimbu,-7.4706,-34.8086,24.33,83,53,6.38,BR,1626994580
290,sao filipe,14.8961,-24.4956,23.52,88,21,3.67,CV,1626994581
291,archidona,37.0965,-4.3887,28.01,40,0,2.22,ES,1626994582
292,kenai,60.5544,-151.2583,17.79,88,100,4.19,US,1626994583
293,nome,64.5011,-165.4064,10.09,71,20,9.26,US,1626994585
294,belmonte,-15.8631,-38.8828,23.28,74,37,4.73,BR,1626994332
295,jerome,42.7241,-114.5186,36.32,10,35,5.97,US,1626994589
296,quelimane,-17.8786,36.8883,22.97,94,20,1.34,MZ,1626994591
297,havoysund,70.9963,24.6622,5.49,77,100,8.78,NO,1626994592
298,tumaco,1.7986,-78.8156,26.16,79,52,4.7,CO,1626994593
299,aberdeen,57.1437,-2.0981,16.38,96,90,2.06,GB,1626994432
300,tilichiki,60.4667,166.1,17.52,57,99,2.37,RU,1626994596
301,nantucket,41.2835,-70.0995,22.36,77,75,1.87,US,1626994597
302,moba,33.2288,105.0179,17.65,97,100,1.86,CN,1626994598
303,bambous virieux,-20.3428,57.7575,21.14,73,40,5.14,MU,1626994600
304,adre,13.4667,22.2,21.11,91,95,2.58,TD,1626994602
305,jumla,29.2747,82.1838,17.39,96,100,0.64,NP,1626994604
306,sao joao da barra,-21.6403,-41.0511,19.76,75,13,4.17,BR,1626994605
307,araouane,18.9048,-3.5265,35.09,27,26,2.75,ML,1626994607
308,diego de almagro,-26.3667,-70.05,15.78,37,0,0.63,CL,1626994608
309,sungairaya,0.7,108.9,26.04,85,98,2.8,ID,1626994609
310,ardmore,34.1743,-97.1436,32.18,49,1,1.79,US,1626994611
311,brownsville,25.9018,-97.4975,31.12,77,100,3.13,US,1626994612
312,olecko,54.0337,22.507,13.23,91,3,2.34,PL,1626994613
313,ponta do sol,32.6667,-17.1,23.89,79,24,2.62,PT,1626994615
314,kungurtug,50.5994,97.5228,16.31,67,93,0.69,RU,1626994616
315,pisco,-13.7,-76.2167,18.03,72,90,6.17,PE,1626994617
316,umm lajj,25.0213,37.2685,29.3,69,7,3.13,SA,1626994618
317,bull savanna,17.8868,-77.5902,27.36,68,28,5.05,JM,1626994620
318,torbat-e jam,35.244,60.6225,26.96,19,0,3.46,IR,1626994621
319,riyadh,24.6877,46.7219,34.08,33,98,7.9,SA,1626994590
320,ilulissat,69.2167,-51.1,4.08,88,99,1.34,GL,1626994623
321,poso,-1.3959,120.7524,25.63,77,100,0.96,ID,1626994625
322,sola,-13.8833,167.55,26.37,89,40,0.0,VU,1626994626
323,helong,42.5397,128.9972,25.73,72,99,0.95,CN,1626994627
324,tarata,-17.6167,-66.0167,20.68,48,5,2.63,BO,1626994628
325,qaqortoq,60.7167,-46.0333,6.92,93,65,1.64,GL,1626994370
326,labuhan,-6.8844,112.2051,24.25,86,54,2.97,ID,1626994631
327,shitanjing,39.2342,106.3439,22.85,68,86,4.52,CN,1626994632
328,davila,18.4726,120.5763,25.99,83,100,8.98,PH,1626994633
329,alice springs,-23.7,133.8833,9.75,62,28,2.57,AU,1626994635
330,nadym,65.5333,72.5167,11.21,66,97,3.74,RU,1626994636
331,eureka,40.8021,-124.1637,21.22,68,16,2.68,US,1626994637
332,zhigansk,66.7697,123.3711,18.26,73,52,3.08,RU,1626994638
333,horadiz,39.4488,47.3353,25.43,43,2,1.06,AZ,1626994640
334,douglas,41.3,-96.167,31.95,55,1,3.58,US,1626994641
335,gambela,8.25,34.5833,20.39,91,85,1.7,ET,1626994642
336,north bend,43.4065,-124.2243,24.58,63,5,0.45,US,1626994644
337,lashio,22.9333,97.75,20.32,99,100,0.26,MM,1626994646
338,sitka,57.0531,-135.33,14.42,81,100,2.13,US,1626994647
339,neiafu,-18.65,-173.9833,27.38,83,40,2.06,TO,1626994649
340,chiesanuova,43.9045,12.4214,22.54,68,8,1.03,SM,1626994650
341,butembo,0.15,29.2833,15.3,78,55,0.84,CD,1626994651
342,adeje,28.1227,-16.726,25.49,56,0,1.34,ES,1626994652
343,acari,-15.4311,-74.6158,18.97,73,16,1.93,PE,1626994655
344,hofn,64.2539,-15.2082,11.89,96,100,1.19,IS,1626994656
345,port hardy,50.6996,-127.4199,15.1,82,75,4.12,CA,1626994657
346,shabqadar,34.2139,71.5552,30.18,43,3,1.46,PK,1626994659
347,moura,38.1401,-7.4486,22.06,43,0,3.71,PT,1626994527
348,soe,-9.8607,124.284,17.65,45,1,1.38,ID,1626994661
349,isla vista,34.4133,-119.861,37.29,49,83,2.99,US,1626994662
350,puerto escondido,15.85,-97.0667,30.72,67,37,2.7,MX,1626994664
351,vestmannaeyjar,63.4427,-20.2734,11.9,97,100,8.74,IS,1626994666
352,isla mujeres,21.2311,-86.731,31.76,71,0,3.44,MX,1626994667
353,sekoma,-24.4,23.8833,2.3,46,0,3.68,BW,1626994669
354,praia da vitoria,38.7333,-27.0667,21.14,73,40,4.76,PT,1626994670
355,souillac,-20.5167,57.5167,21.21,73,40,5.14,MU,1626994671
356,taikang,46.8333,124.4167,26.23,72,77,6.11,CN,1626994672
357,haines junction,60.7522,-137.5108,17.97,45,48,4.12,CA,1626994674
358,tocopilla,-22.092,-70.1979,16.48,66,20,3.51,CL,1626994313
359,huarmey,-10.0681,-78.1522,18.77,80,10,4.42,PE,1626994676
360,boddam,57.4667,-1.7833,16.32,90,41,1.34,GB,1626994677
361,margate,51.3813,1.3862,17.24,84,4,0.45,GB,1626994679
362,moranbah,-22.0016,148.0466,16.95,59,6,5.53,AU,1626994680
363,challapata,-18.9,-66.7667,8.65,27,4,1.25,BO,1626994681
364,comodoro rivadavia,-45.8667,-67.5,13.92,44,0,3.09,AR,1626994403
365,bay roberts,47.5999,-53.2648,11.85,96,98,4.02,CA,1626994684
366,ancud,-41.8697,-73.8203,8.74,93,100,2.85,CL,1626994685
367,brekstad,63.687,9.6654,12.23,100,75,6.69,NO,1626994687
368,geraldton,-28.7667,114.6,13.23,88,90,4.63,AU,1626994689
369,itarema,-2.9248,-39.9167,26.38,79,6,8.7,BR,1626994690
370,kiunga,-6.1219,141.2906,23.45,98,99,1.66,PG,1626994691
371,bose,45.4612,8.0137,22.3,87,2,2.57,IT,1626994692
372,chebsara,59.2002,38.8356,12.32,91,100,3.77,RU,1626994694
373,conakry,9.538,-13.6773,25.04,94,75,5.14,GN,1626994695
374,kailua,21.4022,-157.7394,27.79,69,77,9.87,US,1626994696
375,chikwawa,-16.0335,34.8009,21.23,65,32,1.83,MW,1626994698
376,barmer,25.75,71.3833,28.91,72,89,6.21,IN,1626994699
377,boda,4.3189,17.4695,21.09,96,100,1.05,CF,1626994700
378,kalengwa,-13.4659,25.0027,11.69,31,0,2.87,ZM,1626994701
379,auburn,47.3073,-122.2284,26.81,41,58,1.79,US,1626994703
380,salalah,17.0151,54.0924,25.75,88,63,4.73,OM,1626994704
381,nizwa,22.9333,57.5333,31.06,52,74,1.91,OM,1626994705
382,wana,32.2989,69.5725,24.66,41,2,1.69,PK,1626994706
383,nevelsk,46.6733,141.8633,21.24,97,100,3.71,RU,1626994708
384,bagdarin,54.4333,113.6,16.04,90,50,0.94,RU,1626994709
385,quimper,48.0,-4.1,23.04,78,0,3.6,FR,1626994710
386,beringovskiy,63.05,179.3167,9.67,83,35,3.55,RU,1626994712
387,kahului,20.8947,-156.47,29.43,77,59,6.75,US,1626994713
388,baiyin,36.5583,104.2081,20.49,71,36,1.93,CN,1626994714
389,waipawa,-41.4122,175.5153,10.02,70,28,2.49,NZ,1626994715
390,caravelas,-17.7125,-39.2481,21.78,65,8,3.91,BR,1626994718
391,kochubey,44.3861,46.5825,24.84,72,100,0.99,RU,1626994719
392,san cristobal,7.7669,-72.225,22.1,97,97,1.88,VE,1626994721
393,roncesvalles,4.0108,-75.6049,12.16,91,100,1.03,CO,1626994723
394,paracuru,-3.41,-39.0306,27.01,79,7,7.15,BR,1626994724
395,maragogi,-9.0122,-35.2225,23.49,79,0,4.74,BR,1626994725
396,igatpuri,19.7,73.55,22.34,98,100,3.67,IN,1626994727
397,akhtanizovskaya,45.32,37.1,21.26,72,57,7.46,RU,1626994729
398,sistranda,63.7256,8.834,12.17,86,100,6.68,NO,1626994730
399,nelson bay,-32.7167,152.15,11.64,96,100,5.76,AU,1626994731
400,harper,4.375,-7.7169,24.67,81,92,4.74,LR,1626994733
401,guaraniacu,-25.1008,-52.8781,18.48,64,0,0.92,BR,1626994734
402,kukushtan,57.6464,56.4952,13.79,96,100,4.67,RU,1626994736
403,sibiti,-3.6819,13.3499,19.15,80,80,1.45,CG,1626994738
404,dubreka,9.7911,-13.5233,25.04,92,100,1.49,GN,1626994739
405,porangatu,-13.4408,-49.1486,25.06,35,28,1.8,BR,1626994740
406,neuquen,-38.9516,-68.0591,14.94,44,90,0.51,AR,1626994741
407,fukuma,33.7667,130.4667,29.46,71,100,4.58,JP,1626994743
408,mayor pablo lagerenza,-19.9309,-60.7718,24.57,27,0,2.33,PY,1626994744
409,gondanglegi,-7.7479,112.0132,22.77,92,45,2.9,ID,1626994745
410,tokmak,47.2514,35.7058,18.15,72,30,6.02,UA,1626994747
411,yerbogachen,61.2767,108.0108,17.01,79,100,0.27,RU,1626994748
412,alta floresta,-9.8756,-56.0861,25.93,30,0,1.2,BR,1626994749
413,russell,32.3502,-85.1999,32.53,68,75,2.57,US,1626994751
414,roanoke rapids,36.4615,-77.6542,28.58,78,1,2.06,US,1626994752
415,vila velha,-20.3297,-40.2925,24.42,73,40,4.12,BR,1626994753
416,kavieng,-2.5744,150.7967,28.15,78,52,5.02,PG,1626994754
417,kalat,29.0225,66.5916,21.23,53,2,1.5,PK,1626994756
418,tessalit,20.1986,1.0114,28.93,49,100,8.53,ML,1626994757
419,yumen,40.2833,97.2,25.74,37,14,4.25,CN,1626994758
420,iralaya,15.0,-83.2333,30.05,82,61,5.45,HN,1626994759
421,kaeo,-35.1,173.7833,14.07,91,55,0.99,NZ,1626994761
422,mareeba,-17.0,145.4333,21.84,83,51,0.74,AU,1626994762
423,port blair,11.6667,92.75,27.76,86,100,9.66,IN,1626994763
424,khash,28.2211,61.2158,25.32,16,0,1.69,IR,1626994765
425,highland springs,37.546,-77.3278,28.49,51,1,1.54,US,1626994766
426,ankang,32.68,109.0172,22.59,94,95,1.21,CN,1626994767
427,jijiga,9.35,42.8,16.78,82,94,5.43,ET,1626994770
428,duluth,46.7833,-92.1066,28.67,80,90,2.24,US,1626994500
429,praya,14.9215,-23.5087,25.3,73,75,5.14,CV,1626994773
430,qasigiannguit,68.8193,-51.1922,3.59,93,100,1.81,GL,1626994774
431,kamenka,51.3223,42.7678,14.89,80,62,3.2,RU,1626994775
432,mikhaylovka,50.06,43.2379,18.29,71,100,4.52,RU,1626994777
433,opuwo,-18.0607,13.84,13.84,28,0,3.64,NA,1626994778
434,grand gaube,-20.0064,57.6608,21.22,70,50,1.34,MU,1626994779
435,rawson,-43.3002,-65.1023,13.31,37,100,3.99,AR,1626994691
436,merke,42.8728,73.1786,21.29,49,0,3.21,KZ,1626994782
437,agropoli,40.3469,14.9966,24.69,76,0,2.12,IT,1626994783
438,lircay,-12.9896,-74.7205,17.3,56,83,3.98,PE,1626994784
439,baker,30.5882,-91.1682,32.86,82,36,2.7,US,1626994712
440,ternate,0.8,127.4,27.55,81,80,4.79,ID,1626994787
441,sawakin,19.1059,37.3321,33.08,51,100,10.06,SD,1626994788
442,coahuayana,18.7333,-103.6833,29.66,76,100,1.82,MX,1626994789
443,baleshwar,21.4942,86.9317,26.93,89,100,4.18,IN,1626994791
444,ubrique,36.6778,-5.446,25.37,45,1,2.0,ES,1626994792
445,aklavik,68.2191,-135.0107,13.0,88,90,7.2,CA,1626994793
446,laguna,38.421,-121.4238,41.74,25,0,1.34,US,1626994794
447,mayo,38.8876,-76.5119,28.65,50,55,0.45,US,1626994796
448,saint-augustin,51.226,-58.6502,9.7,90,100,6.29,CA,1626994797
449,terney,45.0503,136.6092,26.07,74,59,0.3,RU,1626994798
450,miami,25.7743,-80.1937,33.0,72,75,1.79,US,1626994265
451,aromashevo,56.8602,68.6375,20.41,65,22,5.02,RU,1626994801
452,ulaanbaatar,47.9077,106.8832,13.07,88,0,1.0,MN,1626994654
453,flin flon,54.7682,-101.865,30.28,42,28,4.13,CA,1626994807
454,rehoboth,-23.3167,17.0833,4.35,15,0,2.47,NA,1626994809
455,tamandare,-8.7597,-35.1047,23.21,81,4,4.68,BR,1626994810
456,enshi,30.3,109.4833,23.28,97,65,0.39,CN,1626994812
457,bourail,-21.5667,165.4833,22.61,65,2,1.46,NC,1626994815
458,gidam,18.9833,81.4,22.75,98,100,3.5,IN,1626994816
459,dillon,34.4166,-79.3712,33.82,50,1,1.2,US,1626994819
460,gogrial,8.5332,28.1004,22.65,86,96,1.69,SS,1626994820
461,omsukchan,62.5333,155.8,8.66,95,100,2.95,RU,1626994822
462,gizo,-8.103,156.8419,27.9,76,22,2.1,SB,1626994824
463,colares,38.7992,-9.4469,19.6,74,78,0.89,PT,1626994825
464,pingliang,35.5392,106.6861,20.47,91,97,3.46,CN,1626994826
465,cascais,38.6979,-9.4215,19.7,72,72,0.89,PT,1626994828
466,aripuana,-9.1667,-60.6333,26.61,40,0,0.99,BR,1626994829
467,auki,-8.7676,160.7034,28.77,69,42,1.2,SB,1626994830
468,aroeiras,-7.5453,-35.7075,19.02,87,10,3.19,BR,1626994832
469,majene,-3.5403,118.9707,24.6,88,100,4.45,ID,1626994833
470,palembang,-2.9167,104.7458,25.05,94,40,2.57,ID,1626994835
471,ustye,59.6304,39.736,12.74,84,99,3.47,RU,1626994836
472,valvedditturai,9.8167,80.1667,28.24,76,95,9.96,LK,1626994837
473,gornopravdinsk,60.05,69.9,17.64,96,43,3.42,RU,1626994839
474,andenes,69.3143,16.1194,8.37,87,75,8.23,NO,1626994840
475,bom jesus,-9.0744,-44.3586,24.14,40,0,2.23,BR,1626994842
476,suez,29.9737,32.5263,26.46,68,0,2.69,EG,1626994843
477,xinzhi,36.4989,111.7047,22.53,76,100,0.98,CN,1626994844
478,shinshiro,34.9,137.5,30.25,70,80,0.5,JP,1626994845
479,svetlyy,54.675,20.1347,15.03,82,73,2.99,RU,1626994847
480,kawalu,-7.3817,108.2082,21.68,94,73,0.17,ID,1626994848
481,tautira,-17.7333,-149.15,28.01,70,40,5.21,PF,1626994849
482,nishihara,26.1842,127.7558,26.6,94,75,11.32,JP,1626994851
483,ben tre,10.2333,106.3833,24.74,92,100,2.11,VN,1626994852
484,copperas cove,31.1241,-97.9031,33.11,56,80,2.93,US,1626994854
485,bud,39.447,-86.1758,27.73,71,95,2.88,US,1626994855
486,havre-saint-pierre,50.2334,-63.5986,14.46,87,100,3.96,CA,1626994856
487,bjerringbro,56.378,9.6607,15.58,96,13,3.3,DK,1626994857
488,makarska,43.2969,17.0178,22.08,57,1,4.06,HR,1626994859
489,guasdualito,7.2424,-70.7324,23.3,98,98,1.6,VE,1626994860
490,hualmay,-11.0964,-77.6139,18.41,78,18,4.37,PE,1626994861
491,mitu,1.1983,-70.1733,22.46,97,68,1.0,CO,1626994863
492,gat,31.61,34.7642,25.38,100,0,1.84,IL,1626994865
493,noumea,-22.2763,166.4572,23.89,99,31,1.36,NC,1626994868
494,tanete,-3.9443,119.7848,23.05,96,100,3.04,ID,1626994869
495,danville,36.586,-79.395,30.01,65,25,1.91,US,1626994777
496,oranjestad,12.524,-70.027,26.91,86,26,11.64,AW,1626994815
497,rio grande,-32.035,-52.0986,12.19,78,76,4.14,BR,1626994872
498,fasa,28.9383,53.6482,29.44,43,33,0.77,IR,1626994874
499,batemans bay,-35.7167,150.1833,8.44,64,100,2.35,AU,1626994875
500,yeppoon,-23.1333,150.7333,11.88,63,0,2.07,AU,1626994878
501,guskhara,23.5,87.75,26.74,89,52,5.3,IN,1626994881
502,siilinjarvi,63.0833,27.6667,13.01,82,0,3.6,FI,1626994883
503,port macquarie,-31.4333,152.9167,12.72,77,98,4.72,AU,1626994884
504,deder,9.3167,41.45,15.25,81,87,1.23,ET,1626994886
505,hovd,48.0056,91.6419,22.68,29,99,1.35,MN,1626994887
506,chiredzi,-21.05,31.6667,12.25,20,0,1.89,ZW,1626994888
507,port lincoln,-34.7333,135.8667,11.49,83,54,3.85,AU,1626994890
508,mbanza-ngungu,-5.25,14.8667,20.72,67,66,4.48,CD,1626994891
509,byron bay,-28.65,153.6167,17.81,66,94,4.14,AU,1626994893
510,kipushi,-11.7667,27.2333,14.45,49,0,2.0,CD,1626994895
511,ambon,-3.6954,128.1814,24.08,94,40,2.06,ID,1626994896
512,porto novo,6.4965,2.6036,24.53,79,15,4.05,BJ,1626994897
513,cestas,44.7435,-0.6791,22.23,94,75,2.24,FR,1626994658
514,changping,40.2186,116.2197,22.8,94,59,3.58,CN,1626994901
515,bintulu,3.1667,113.0333,24.9,89,100,1.54,MY,1626994902
516,karratha,-20.7377,116.8463,19.18,37,19,4.54,AU,1626994903
517,pindiga,9.9833,10.9333,22.19,87,96,4.71,NG,1626994905
518,mount isa,-20.7333,139.5,19.87,32,69,4.63,AU,1626994906
519,almas,46.2833,22.2333,14.96,74,1,1.25,RO,1626994907
520,inndyr,67.0338,14.0276,9.25,88,100,3.16,NO,1626994908
521,nieuw nickerie,5.95,-56.9833,27.1,84,25,4.6,SR,1626994912
522,olafsvik,64.8945,-23.7142,11.17,97,100,5.45,IS,1626994913
523,yaan,7.3833,8.5667,21.59,93,99,2.42,NG,1626994914
524,la ronge,55.1001,-105.2842,28.98,28,66,6.47,CA,1626994916
525,pochinki,54.6988,44.8668,12.01,55,18,2.09,RU,1626994917
526,college,64.8569,-147.8028,26.16,45,62,0.45,US,1626994918
527,road town,18.4167,-64.6167,28.44,79,3,8.24,VG,1626994920
528,ostrovnoy,68.0531,39.5131,4.48,86,44,8.07,RU,1626994921
529,barra do garcas,-15.89,-52.2567,24.76,33,0,0.63,BR,1626994923
530,vao,-22.6667,167.4833,20.77,68,4,2.07,NC,1626994924
531,brae,60.3964,-1.353,10.95,77,100,3.07,GB,1626994925
532,halifax,44.6453,-63.5724,18.03,86,40,0.45,CA,1626994486
533,constitucion,-35.3333,-72.4167,12.26,84,100,4.23,CL,1626994928
534,zabaykalsk,49.6333,117.3167,19.2,87,75,4.58,RU,1626994929
535,tuatapere,-46.1333,167.6833,7.12,76,12,2.5,NZ,1626994930
536,xuddur,4.1213,43.8894,21.17,80,14,9.59,SO,1626994931
537,dalby,-27.1833,151.2667,13.88,78,88,1.34,AU,1626994933
538,octeville,49.6261,-1.6435,19.92,50,0,5.14,FR,1626994934
539,sao jose da coroa grande,-8.8978,-35.1478,23.47,80,2,4.96,BR,1626994935
540,ipameri,-17.7219,-48.1597,20.56,41,7,2.03,BR,1626994938
541,la macarena,2.1837,-73.7849,21.9,97,89,1.13,CO,1626994939
542,przhevalskoye,55.5093,31.8482,12.12,73,13,2.52,RU,1626994940
