,City,Latitude,Longitude,Max Temperature (Â°C),Humidity (%),Cloudiness (%),Wind Speed (MPH),Country,Date
0,meulaboh,4.1363,96.1285,26.86,80,100,1.28,ID,1627051550
1,esperance,-33.8667,121.9,8.91,75,95,10.89,AU,1627051551
2,saskylakh,71.9167,114.0833,16.3,77,39,2.48,RU,1627051552
3,wanaka,-44.7,169.15,1.73,99,19,0.89,NZ,1627051554
4,vaini,-21.2,-175.2,24.09,94,75,2.06,TO,1627051555
5,albany,42.6001,-73.9662,23.97,61,16,3.26,US,1627051507
6,saraland,30.8207,-88.0706,31.7,74,1,2.9,US,1627051557
7,bredasdorp,-34.5322,20.0403,13.62,58,1,6.69,ZA,1627051558
8,emilio carranza,19.9711,-96.6114,27.45,64,2,1.67,MX,1627051560
9,talavera,15.6167,120.9333,24.38,96,100,1.13,PH,1627051561
10,kapaa,22.0752,-159.319,23.4,84,54,0.45,US,1627051562
11,lasa,46.6166,10.7002,28.9,30,27,0.62,IT,1627051564
12,turayf,31.6725,38.6637,35.14,20,0,5.14,SA,1627051565
13,alta floresta,-9.8756,-56.0861,31.9,40,0,5.14,BR,1627051566
14,klaksvik,62.2266,-6.589,13.51,91,100,8.09,FO,1627051569
15,rafraf,37.1904,10.1837,35.18,55,0,6.7,TN,1627051572
16,zeya,53.75,127.2667,20.39,99,100,1.64,RU,1627051574
17,castro,-24.7911,-50.0119,19.5,40,0,2.27,BR,1627051141
18,cherskiy,68.75,161.3,3.55,90,0,3.18,RU,1627051578
19,hami,42.8,93.45,32.03,34,100,7.22,CN,1627051579
20,talnakh,69.4865,88.3972,15.79,47,100,1.7,RU,1627051580
21,halifax,44.6453,-63.5724,21.9,71,40,2.68,CA,1627051527
22,chuy,-33.6971,-53.4616,17.74,64,7,3.62,UY,1627051583
23,ancud,-41.8697,-73.8203,7.9,75,6,2.76,CL,1627051584
24,sakakah,29.9697,40.2064,38.76,16,0,6.57,SA,1627051585
25,jamestown,42.097,-79.2353,23.5,68,1,3.09,US,1627051438
26,mataura,-46.1927,168.8643,8.04,89,89,1.37,NZ,1627051588
27,san cristobal,7.7669,-72.225,25.1,80,97,2.85,VE,1627051589
28,bluff,-46.6,168.3333,8.22,84,100,4.78,NZ,1627051590
29,leningradskiy,69.3833,178.4167,0.54,94,12,4.25,RU,1627051591
30,severo-yeniseyskiy,60.3725,93.0408,16.45,74,63,1.32,RU,1627051593
31,lekoni,-1.5843,14.2591,32.92,29,83,1.53,GA,1627051594
32,kieta,-6.2167,155.6333,25.8,85,68,1.45,PG,1627051595
33,westport,41.1415,-73.3579,26.68,64,1,0.45,US,1627051434
34,zalantun,48.0,122.7167,21.06,89,74,2.06,CN,1627051598
35,carnarvon,-24.8667,113.6333,18.04,66,27,4.63,AU,1627051599
36,reo,12.3167,-2.4667,34.18,37,46,3.68,BF,1627051600
37,montepuez,-13.1256,38.9997,25.12,41,92,5.66,MZ,1627051602
38,tiksi,71.6872,128.8694,5.53,85,96,2.72,RU,1627051604
39,pandan,14.0453,124.1694,27.97,79,100,6.95,PH,1627051605
40,grindavik,63.8424,-22.4338,13.97,100,90,7.2,IS,1627051606
41,norman wells,65.282,-126.8329,14.02,88,90,5.66,CA,1627051608
42,agadez,19.75,10.25,40.22,15,6,4.99,NE,1627051609
43,kenai,60.5544,-151.2583,11.75,91,20,0.0,US,1627051610
44,broome,42.2506,-75.833,22.89,65,1,0.89,US,1627051612
45,irbil,36.1926,44.0106,42.9,14,0,2.57,IQ,1627051613
46,wanning,18.8003,110.3967,26.66,88,63,3.78,CN,1627051614
47,yar-sale,66.8333,70.8333,14.79,98,98,2.52,RU,1627051615
48,ponta delgada,37.7333,-25.6667,22.4,78,75,7.72,PT,1627051588
49,bambous virieux,-20.3428,57.7575,22.34,68,40,4.12,MU,1627051619
50,nikolskoye,59.7035,30.7861,20.22,52,98,1.47,RU,1627051620
51,broken hill,-31.95,141.4333,5.84,87,23,3.09,AU,1627051622
52,bar bigha,25.2167,85.7333,30.07,72,14,7.08,IN,1627051623
53,hasaki,35.7333,140.8333,24.22,85,2,2.28,JP,1627051624
54,deputatskiy,69.3,139.9,8.68,84,82,1.28,RU,1627051625
55,usta muhammad,28.1794,68.0445,38.76,26,100,4.94,PK,1627051627
56,soyo,-6.1349,12.3689,26.03,72,34,4.34,AO,1627051628
57,alofi,-19.0595,-169.9187,23.94,100,18,3.6,NU,1627051629
58,impfondo,1.6381,18.0667,30.17,50,100,1.79,CG,1627051630
59,yellowknife,62.456,-114.3525,15.74,100,90,2.57,CA,1627051558
60,natal,-5.795,-35.2094,29.36,61,75,9.77,BR,1627051564
61,punta arenas,-53.15,-70.9167,3.01,93,40,9.77,CL,1627051635
62,ajaccio,42.0,8.9167,32.09,58,0,5.66,FR,1627051538
63,gillette,44.2911,-105.5022,24.58,50,1,0.0,US,1627051602
64,barrow,71.2906,-156.7887,2.01,93,90,7.2,US,1627051501
65,avarua,-21.2078,-159.775,23.03,88,75,2.57,CK,1627051640
66,busselton,-33.65,115.3333,9.49,64,97,6.47,AU,1627051641
67,dobson,36.3957,-80.7226,26.83,74,40,1.54,US,1627051642
68,wageningen,51.9667,5.6667,24.52,64,20,2.57,NL,1627051643
69,qaanaaq,77.484,-69.3632,5.41,62,87,1.4,GL,1627051645
70,severo-kurilsk,50.6789,156.125,11.16,95,96,2.4,RU,1627051646
71,rikitea,-23.1203,-134.9692,22.27,78,46,7.65,PF,1627051647
72,saint-philippe,-21.3585,55.7679,21.77,75,60,3.08,RE,1627051648
73,lompoc,34.6391,-120.4579,16.82,88,90,0.0,US,1627051650
74,geraldton,-28.7667,114.6,17.29,82,75,3.6,AU,1627051651
75,dikson,73.5069,80.5464,6.59,70,10,5.05,RU,1627051652
76,guerrero negro,27.9769,-114.0611,23.04,68,57,2.81,MX,1627051654
77,oktyabrskoye,43.0645,44.7417,23.08,78,75,2.0,RU,1627051655
78,mahon,39.8885,4.2658,30.31,45,0,5.14,ES,1627051656
79,pascagoula,30.3658,-88.5561,31.13,71,1,2.57,US,1627051659
80,byron bay,-28.65,153.6167,14.37,91,40,5.61,AU,1627051653
81,olinda,-8.0089,-34.8553,25.85,65,75,7.72,BR,1627051379
82,khatanga,71.9667,102.5,15.17,70,61,4.71,RU,1627051662
83,sitka,57.0531,-135.33,12.94,88,90,2.57,US,1627051663
84,touros,-5.1989,-35.4608,29.5,57,2,8.98,BR,1627051665
85,ponta do sol,32.6667,-17.1,28.17,63,4,1.59,PT,1627051666
86,butaritari,3.0707,172.7902,27.9,79,52,6.87,KI,1627051667
87,lebu,-37.6167,-73.65,11.6,82,100,5.87,CL,1627051668
88,ushuaia,-54.8,-68.3,3.81,81,75,6.69,AR,1627051604
89,hithadhoo,-0.6,73.0833,28.08,76,91,7.28,MV,1627051671
90,constitucion,-35.3333,-72.4167,14.43,60,100,2.67,CL,1627051673
91,bilibino,68.0546,166.4372,13.82,76,100,1.72,RU,1627051674
92,aksha,50.2814,113.2867,16.29,71,75,1.78,RU,1627051677
93,poum,-20.2333,164.0167,21.83,80,99,3.85,NC,1627051678
94,sappington,38.537,-90.3798,29.42,78,1,1.79,US,1627051679
95,lenger,42.183,69.8839,31.69,15,0,1.35,KZ,1627051680
96,meiktila,20.8667,95.8667,25.35,86,98,6.39,MM,1627051682
97,pedasi,7.5333,-80.0333,27.38,80,96,5.45,PA,1627051683
98,sibu,2.3,111.8167,27.17,88,40,0.0,MY,1627051684
99,orangeburg,33.4918,-80.8557,30.48,80,1,2.06,US,1627051686
100,chokurdakh,70.6333,147.9167,1.85,88,6,4.8,RU,1627051687
101,mackay,-21.15,149.2,19.99,88,7,4.12,AU,1627051688
102,ust-nera,64.5667,143.2,12.69,88,94,1.34,RU,1627051690
103,ambovombe,-25.1667,46.0833,19.5,68,45,6.94,MG,1627051691
104,thompson,55.7435,-97.8558,19.09,68,20,6.17,CA,1627051278
105,manoharpur,27.3,75.95,27.53,74,98,1.64,IN,1627051696
106,billings,45.7833,-108.5007,24.17,55,20,3.6,US,1627051643
107,nucet,44.7833,25.55,27.45,46,96,1.31,RO,1627051699
108,cape town,-33.9258,18.4232,16.17,49,0,0.45,ZA,1627051324
109,ndola,-12.9587,28.6366,14.85,46,34,4.47,ZM,1627051701
110,hobart,-42.8794,147.3294,9.59,75,90,1.34,AU,1627051634
111,lander,42.833,-108.7307,26.33,47,1,0.0,US,1627051704
112,sedro-woolley,48.5039,-122.2361,17.12,81,90,0.0,US,1627051705
113,kuala perlis,6.4,100.1333,28.0,77,93,1.01,MY,1627051706
114,port alfred,-33.5906,26.891,12.64,60,66,4.16,ZA,1627051708
115,karasburg,-28.0167,18.75,13.19,16,0,8.22,NA,1627051710
116,mount gambier,-37.8333,140.7667,8.95,93,90,5.66,AU,1627051711
117,pevek,69.7008,170.3133,6.17,71,94,2.5,RU,1627051712
118,opuwo,-18.0607,13.84,25.26,9,0,5.64,NA,1627051714
119,hirara,24.8,125.2833,28.14,90,100,21.95,JP,1627051715
120,dapaong,10.8639,0.205,29.69,52,97,4.47,TG,1627051716
121,dunkirk,51.05,2.3667,29.01,63,14,1.79,FR,1627051717
122,mujiayingzi,42.1167,118.7833,22.07,75,52,3.6,CN,1627051719
123,aleksandrow kujawski,52.8766,18.6935,26.38,68,92,2.41,PL,1627051720
124,tuensang,26.2833,94.8333,22.16,99,26,1.41,IN,1627051721
125,luanda,-8.8368,13.2343,25.0,73,0,4.12,AO,1627051632
126,port elizabeth,-33.918,25.5701,13.16,54,0,2.06,ZA,1627051724
127,alyangula,-13.8483,136.4192,19.93,94,45,0.0,AU,1627051725
128,buala,-8.145,159.5921,26.5,84,11,2.59,SB,1627051726
129,landsberg,52.7368,15.2288,26.99,45,22,1.34,PL,1627051728
130,upernavik,72.7868,-56.1549,4.14,97,100,3.49,GL,1627051729
131,aljezur,37.3191,-8.8033,23.97,52,2,7.22,PT,1627051730
132,gat,31.61,34.7642,30.38,21,0,5.42,IL,1627051732
133,caravelas,-17.7125,-39.2481,23.13,61,100,4.35,BR,1627051733
134,sur,22.5667,59.5289,36.24,49,3,3.71,OM,1627051734
135,umea,63.8284,20.2597,19.96,37,0,5.66,SE,1627051735
136,shingu,33.7333,135.9833,26.62,93,59,1.55,JP,1627051737
137,mareeba,-17.0,145.4333,18.4,96,19,0.98,AU,1627051738
138,wenling,28.3669,121.36,24.83,92,100,7.76,CN,1627051739
139,oranjemund,-28.55,16.4333,19.83,26,0,5.88,NA,1627051741
140,sao jose da coroa grande,-8.8978,-35.1478,25.1,78,50,6.96,BR,1627051742
141,grand gaube,-20.0064,57.6608,22.43,68,13,3.13,MU,1627051743
142,dalvik,65.9702,-18.5286,19.96,88,100,0.32,IS,1627051744
143,kifri,34.6959,44.9661,42.49,13,0,5.2,IQ,1627051746
144,corrales,35.2378,-106.6067,27.59,56,1,1.79,US,1627051747
145,mehamn,71.0357,27.8492,7.5,91,100,12.18,NO,1627051748
146,puerto escondido,15.85,-97.0667,30.2,55,89,0.34,MX,1627051750
147,mahebourg,-20.4081,57.7,22.36,68,40,4.12,MU,1627051751
148,santa clara,22.4,-79.9667,28.81,70,20,5.66,CU,1627051752
149,mar del plata,-38.0023,-57.5575,16.6,60,0,4.47,AR,1627051599
150,chicama,-7.8447,-79.1469,18.3,66,55,2.9,PE,1627051754
151,loralai,30.3705,68.598,24.41,53,93,4.59,PK,1627051756
152,faanui,-16.4833,-151.75,25.54,66,92,7.18,PF,1627051757
153,winslow,35.0242,-110.6974,21.65,75,75,1.34,US,1627051758
154,masyaf,35.0653,36.3406,27.03,56,0,6.51,SY,1627051760
155,mayskiy,47.6931,40.1025,27.67,35,18,1.75,RU,1627051761
156,susa,35.8254,10.637,40.29,36,0,7.72,TN,1627051534
157,mwinilunga,-11.7358,24.4293,25.72,24,92,3.76,ZM,1627051763
158,new norfolk,-42.7826,147.0587,9.4,71,22,0.45,AU,1627051766
159,lubango,-14.9172,13.4925,20.92,8,0,3.09,AO,1627051767
160,talara,-4.5772,-81.2719,20.42,77,90,9.26,PE,1627051768
161,taltal,-25.4,-70.4833,16.15,66,29,2.73,CL,1627051769
162,kailua,21.4022,-157.7394,25.99,71,90,7.2,US,1627051771
163,nhulunbuy,-12.2333,136.7667,21.34,94,7,0.0,AU,1627051772
164,yongan,39.6957,113.6871,19.23,94,40,2.88,CN,1627051773
165,ilulissat,69.2167,-51.1,7.01,93,75,3.6,GL,1627051774
166,manado,1.487,124.8455,28.43,65,40,4.12,ID,1627051776
167,nelson bay,-32.7167,152.15,13.16,90,11,2.95,AU,1627051777
168,kavieng,-2.5744,150.7967,27.41,80,46,4.91,PG,1627051778
169,naze,28.3667,129.4833,25.51,90,100,12.55,JP,1627051780
170,tautira,-17.7333,-149.15,21.01,69,5,5.7,PF,1627051781
171,hermanus,-34.4187,19.2345,13.78,63,0,5.83,ZA,1627051783
172,longyearbyen,78.2186,15.6401,8.91,76,75,7.72,SJ,1627051487
173,dauphin,51.1494,-100.0502,21.08,78,1,5.66,CA,1627051786
174,little current,45.9793,-81.9248,21.34,56,0,2.13,CA,1627051611
175,kensington,-33.9167,151.2167,13.4,78,12,1.34,AU,1627051646
176,georgetown,5.4112,100.3354,29.97,76,20,0.0,MY,1627051789
177,nishihara,26.1842,127.7558,27.03,97,90,12.86,JP,1627051790
178,acajutla,13.5928,-89.8275,28.19,56,100,3.26,SV,1627051792
179,bubaque,11.2833,-15.8333,27.09,78,98,6.54,GW,1627051793
180,tommot,58.9564,126.2925,19.15,98,100,0.94,RU,1627051795
181,steamboat springs,40.485,-106.8317,18.72,77,90,1.54,US,1627051718
182,hilo,19.7297,-155.09,22.28,98,90,1.54,US,1627051798
183,madridejos,39.4682,-3.532,35.14,12,67,9.64,ES,1627051799
184,east london,-33.0153,27.9116,10.52,81,20,6.17,ZA,1627051800
185,hamilton,39.1834,-84.5333,26.47,68,20,0.45,US,1627051689
186,todos santos,23.45,-110.2167,30.56,87,2,1.45,MX,1627051811
187,xuddur,4.1213,43.8894,30.74,31,88,10.1,SO,1627051812
188,ust-ishim,57.6935,71.1665,23.41,76,3,2.89,RU,1627051814
189,qaqortoq,60.7167,-46.0333,8.77,70,16,4.72,GL,1627051815
190,nata,8.3333,-80.5167,29.15,79,99,2.39,PA,1627051816
191,tarauaca,-8.1614,-70.7656,30.88,36,39,1.15,BR,1627051817
192,arraial do cabo,-22.9661,-42.0278,24.98,60,40,4.63,BR,1627051819
193,itaituba,-4.2761,-55.9836,31.09,74,20,3.6,BR,1627051820
194,aksay,47.26,39.87,28.12,42,6,3.58,RU,1627051822
195,elizabeth city,36.2946,-76.2511,27.79,60,1,1.54,US,1627051638
196,iqaluit,63.7506,-68.5145,10.85,71,75,6.71,CA,1627051746
197,kruisfontein,-34.0033,24.7314,11.05,76,94,2.73,ZA,1627051826
198,lavrentiya,65.5833,-171.0,5.85,82,100,1.59,RU,1627051827
199,andenes,69.3143,16.1194,11.15,76,75,6.17,NO,1627051828
200,aran,40.6253,46.9756,33.82,42,90,3.09,AZ,1627051830
201,am timan,11.0297,20.2827,30.2,51,41,3.08,TD,1627051831
202,itacoatiara,-3.1431,-58.4442,31.94,54,24,2.36,BR,1627051832
203,ulladulla,-35.35,150.4667,9.5,88,95,1.56,AU,1627051833
204,berlevag,70.8578,29.0864,7.89,88,100,12.42,NO,1627051835
205,moree,-29.4667,149.85,10.01,93,40,4.12,AU,1627051836
206,ciudad bolivar,8.1222,-63.5497,30.03,66,67,2.65,VE,1627051837
207,tasiilaq,65.6145,-37.6368,4.45,97,100,1.27,GL,1627051840
208,joaima,-16.6542,-41.0306,23.37,48,100,3.22,BR,1627051841
209,los llanos de aridane,28.6585,-17.9182,23.86,65,20,9.26,ES,1627051842
210,santa maria,-29.6842,-53.8069,20.61,56,0,2.06,BR,1627051843
211,cabo san lucas,22.8909,-109.9124,30.84,65,1,2.64,MX,1627051804
212,udachnyy,66.4167,112.4,16.96,73,92,2.74,RU,1627051846
213,el alto,-4.2714,-81.2147,18.81,63,11,3.45,PE,1627051847
214,mhlume,-26.0333,31.85,17.15,22,0,3.65,SZ,1627051848
215,provideniya,64.3833,-173.3,7.91,80,48,2.39,RU,1627051850
216,bat khela,34.6167,71.9714,32.1,36,2,0.47,PK,1627051684
217,hofn,64.2539,-15.2082,13.01,94,90,3.09,IS,1627051852
218,inhambane,-23.865,35.3833,20.0,64,75,6.26,MZ,1627051854
219,jimo,36.3897,120.4622,24.88,78,0,3.0,CN,1627051856
220,beringovskiy,63.05,179.3167,11.5,80,100,3.27,RU,1627051857
221,biak,-0.9131,122.8766,24.39,84,100,4.18,ID,1627051858
222,atuona,-9.8,-139.0333,24.69,76,41,5.19,PF,1627051860
223,minab,27.1467,57.0801,38.72,39,8,2.07,IR,1627051861
224,dingzhou,38.5131,114.9956,25.06,86,55,1.87,CN,1627051862
225,shache,38.4167,77.2406,28.62,28,0,2.97,CN,1627051863
226,dwarka,22.2394,68.9678,28.65,81,100,8.24,IN,1627051865
227,kaputa,-8.4689,29.6619,28.19,35,3,1.04,ZM,1627051866
228,galesong,-5.3166,119.3661,24.01,76,34,3.58,ID,1627051867
229,coquimbo,-29.9533,-71.3436,9.85,100,90,2.06,CL,1627051745
230,boden,65.8252,21.6886,18.0,40,100,2.54,SE,1627051870
231,alice springs,-23.7,133.8833,8.75,49,0,2.06,AU,1627051835
232,bud,39.447,-86.1758,26.63,77,61,2.73,US,1627051872
233,bathsheba,13.2167,-59.5167,30.34,74,20,7.72,BB,1627051873
234,emerald,-23.5333,148.1667,16.1,50,0,0.0,AU,1627051875
235,srednekolymsk,67.45,153.6833,14.51,58,100,2.33,RU,1627051877
236,bethel,41.3712,-73.414,25.42,65,1,0.45,US,1627051878
237,krasnaya gora,52.9995,31.6023,25.95,48,56,4.98,RU,1627051880
238,tuatapere,-46.1333,167.6833,8.79,91,88,2.77,NZ,1627051881
239,bani,18.2833,-70.3333,29.92,56,7,6.33,DO,1627051882
240,chumikan,54.7183,135.315,15.94,95,95,1.88,RU,1627051883
241,cairns,-16.9167,145.7667,20.97,90,90,2.57,AU,1627051885
242,viareggio,43.8735,10.2558,35.25,59,2,2.99,IT,1627051886
243,geilo,60.5333,8.2076,23.17,48,63,5.23,NO,1627051887
244,marzuq,14.4,46.4667,30.63,42,85,5.54,YE,1627051888
245,necochea,-38.5473,-58.7368,15.58,58,99,4.54,AR,1627051890
246,kwidzyn,53.7249,18.9311,24.59,54,38,1.91,PL,1627051891
247,zhigansk,66.7697,123.3711,15.84,69,43,1.73,RU,1627051892
248,kupang,-10.1667,123.5833,23.07,76,1,4.5,ID,1627051895
249,husavik,66.0449,-17.3389,19.95,75,100,2.06,IS,1627051896
250,calvia,39.5657,2.5062,38.38,32,2,4.26,ES,1627051897
251,kaitangata,-46.2817,169.8464,6.63,79,59,2.51,NZ,1627051899
252,dingle,10.9995,122.6711,25.97,79,100,5.12,PH,1627051900
253,nakasongola,1.3089,32.4564,25.95,45,69,3.3,UG,1627051902
254,santa lucia,27.9117,-15.5407,23.62,47,20,15.43,ES,1627051904
255,saint george,37.1041,-113.5841,30.3,76,1,1.34,US,1627051905
256,cidreira,-30.1811,-50.2056,19.35,63,9,3.02,BR,1627051906
257,maceio,-9.6658,-35.7353,25.69,78,75,5.14,BR,1627051705
258,rawson,-43.3002,-65.1023,11.1,38,0,12.08,AR,1627051909
259,ambulu,-8.345,113.6058,23.82,82,58,3.06,ID,1627051911
260,lanzhou,36.0564,103.7922,30.6,58,0,3.34,CN,1627051912
261,maues,-3.3836,-57.7186,33.72,41,20,2.69,BR,1627051913
262,vagur,61.4732,-6.8119,10.89,90,99,5.51,FO,1627051916
263,minot,48.2325,-101.2963,24.33,64,1,1.54,US,1627051860
264,luderitz,-26.6481,15.1594,22.01,27,0,4.52,NA,1627051919
265,bronnoysund,65.4625,12.1997,14.29,82,75,3.09,NO,1627051921
266,narsaq,60.9167,-46.05,9.52,66,37,1.19,GL,1627051922
267,muravlenko,63.7898,74.523,21.05,79,74,11.01,RU,1627051923
268,fort nelson,58.8053,-122.7002,12.77,94,90,1.03,CA,1627051924
269,fortuna,40.5982,-124.1573,13.14,94,20,0.0,US,1627051926
270,kondopoga,62.2057,34.2614,14.82,37,66,5.4,RU,1627051928
271,skibotn,69.3913,20.2679,11.0,91,100,3.08,NO,1627051929
272,uribia,11.7139,-72.266,32.09,52,52,12.01,CO,1627051931
273,kloulklubed,7.0419,134.2556,28.4,72,100,3.18,PW,1627051932
274,puerto ayora,-0.7393,-90.3518,23.08,81,100,2.24,EC,1627051933
275,mogadishu,2.0371,45.3438,24.93,69,75,9.77,SO,1627051690
276,portland,45.5234,-122.6762,16.75,77,20,0.45,US,1627051760
277,peterhead,57.5058,-1.7981,21.92,84,91,3.09,GB,1627051937
278,namibe,-15.1961,12.1522,25.35,69,0,5.14,AO,1627051938
279,souillac,-20.5167,57.5167,22.42,68,40,4.12,MU,1627051939
280,santa cruz de tenerife,28.4682,-16.2546,26.79,89,75,6.71,ES,1627051940
281,nagybajom,46.3923,17.5115,27.76,32,20,2.23,HU,1627051942
282,isangel,-19.55,169.2667,23.63,87,13,2.05,VU,1627051943
283,auki,-8.7676,160.7034,25.05,86,7,1.66,SB,1627051944
284,torbay,47.6666,-52.7314,16.2,99,90,2.57,CA,1627051946
285,novopavlovka,51.2172,109.2091,12.92,87,4,1.44,RU,1627051947
286,leeton,-34.5667,146.4,9.03,100,90,2.06,AU,1627051948
287,hambantota,6.1241,81.1185,26.19,100,75,3.09,LK,1627051949
288,iberia,29.9502,-91.7507,30.61,89,1,3.09,US,1627051875
289,niono,14.2526,-5.993,35.29,36,49,2.58,ML,1627051952
290,kaspiysk,42.8816,47.6392,29.1,48,20,1.79,RU,1627051953
291,urumqi,43.801,87.6005,29.53,27,0,3.0,CN,1627051954
292,clyde river,70.4692,-68.5914,2.13,93,90,12.35,CA,1627051956
293,vardo,70.3705,31.1107,11.11,81,100,12.37,NO,1627051957
294,lufkin,31.3382,-94.7291,29.91,83,75,3.6,US,1627051958
295,luganville,-15.5333,167.1667,25.63,85,100,2.28,VU,1627051959
296,manacapuru,-3.2997,-60.6206,30.32,70,25,2.01,BR,1627051961
297,kodiak,57.79,-152.4072,11.09,96,100,7.81,US,1627051962
298,krasnyy,54.5678,31.4333,19.73,77,51,5.06,RU,1627051963
299,maarianhamina,60.0973,19.9348,16.92,55,0,5.14,AX,1627051965
300,itaueira,-7.6033,-43.0256,31.77,29,0,5.84,BR,1627051966
301,tucuman,-26.8241,-65.2226,19.0,42,0,2.06,AR,1627051967
302,sarangani,5.4033,125.4636,29.18,74,99,4.51,PH,1627051968
303,predivinsk,57.0669,93.4378,18.09,72,0,1.71,RU,1627051970
304,salalah,17.0151,54.0924,25.6,95,100,3.15,OM,1627051971
305,korem,12.5058,39.5228,14.52,77,100,4.97,ET,1627051972
306,coihaique,-45.5752,-72.0662,4.97,70,20,2.06,CL,1627051974
307,nanortalik,60.1432,-45.2371,6.38,84,60,6.73,GL,1627051975
308,margate,51.3813,1.3862,21.06,74,73,2.24,GB,1627051976
309,lucea,18.451,-78.1736,31.03,69,81,4.64,JM,1627051977
310,bodden town,19.2833,-81.25,31.07,74,20,0.89,KY,1627051979
311,gigmoto,13.7796,124.39,27.58,84,99,6.5,PH,1627051980
312,lagoa,39.05,-27.9833,21.14,93,79,6.69,PT,1627051981
313,tomatlan,19.9333,-105.25,26.08,80,100,1.14,MX,1627051983
314,mount isa,-20.7333,139.5,13.87,44,4,0.0,AU,1627051945
315,jaranwala,31.3333,73.4333,36.29,40,85,5.22,PK,1627051985
316,balaciu,44.6333,26.8833,28.54,40,43,3.78,RO,1627051986
317,kidal,18.4411,1.4078,38.6,23,81,3.09,ML,1627051987
318,ayan,56.45,138.1667,17.05,78,85,2.48,RU,1627051989
319,zaraza,9.3503,-65.3245,27.54,84,68,1.7,VE,1627051990
320,novobiryusinskiy,56.9578,97.7076,17.91,68,0,2.18,RU,1627051991
321,thohoyandou,-22.9456,30.485,16.1,30,0,4.42,ZA,1627051993
322,trinidad,-14.8333,-64.9,26.99,65,0,0.0,BO,1627051995
323,matara,5.9485,80.5353,25.16,88,92,4.54,LK,1627051996
324,kibala,9.1104,18.3463,30.97,62,40,4.12,TD,1627051997
325,kjopsvik,68.097,16.3742,11.7,90,100,2.97,NO,1627051999
326,anshun,26.25,105.9333,20.24,91,43,1.55,CN,1627052000
327,walvis bay,-22.9575,14.5053,30.53,10,0,4.63,NA,1627052001
328,aripuana,-9.1667,-60.6333,33.38,25,0,2.35,BR,1627052003
329,pedernales,18.0384,-71.744,30.28,57,9,2.09,DO,1627052004
330,talakan,50.3167,130.3667,21.76,97,100,2.07,RU,1627052005
331,saint-joseph,-21.3667,55.6167,21.21,71,43,1.32,RE,1627052006
332,erenhot,43.6475,111.9767,30.18,27,100,3.04,CN,1627052008
333,omsukchan,62.5333,155.8,8.67,97,100,0.16,RU,1627052009
334,samarkand,39.6542,66.9597,33.68,26,2,6.17,UZ,1627051992
335,coolum beach,-26.5333,153.1,17.41,90,85,4.69,AU,1627052012
336,sangmelima,2.9333,11.9833,25.13,72,99,1.86,CM,1627052014
337,collierville,35.042,-89.6645,30.61,80,0,0.9,US,1627051979
338,mackenzie,55.2999,-123.1698,10.12,76,1,2.57,CA,1627052016
339,merauke,-8.4667,140.3333,23.87,83,39,5.28,ID,1627052017
340,tiko,4.0745,9.3699,26.91,80,91,3.97,CM,1627052020
341,laguna,38.421,-121.4238,27.27,69,1,0.0,US,1627052021
342,saldanha,-33.0117,17.9442,17.03,56,0,3.04,ZA,1627052022
343,shelburne,44.0787,-80.2041,23.2,45,0,0.99,CA,1627052019
344,cockburn town,21.4612,-71.1419,27.73,81,53,8.18,TC,1627052025
345,mezen,65.8522,44.24,10.33,54,90,4.59,RU,1627052026
346,jadu,31.953,12.0261,33.11,16,0,5.35,LY,1627052027
347,yarada,17.65,83.2667,28.18,89,90,5.14,IN,1627052028
348,college,64.8569,-147.8028,16.44,85,90,1.54,US,1627052030
349,ostrovnoy,68.0531,39.5131,7.25,83,100,8.42,RU,1627052031
350,beloha,-25.1667,45.05,18.75,58,98,6.16,MG,1627052032
351,bosaso,11.2842,49.1816,32.99,66,40,7.72,SO,1627052035
352,muriwai beach,-36.8167,174.45,10.48,92,1,0.6,NZ,1627052036
353,araguacu,-12.9306,-49.8264,32.14,26,54,5.72,BR,1627052037
354,vanavara,60.34,102.2797,16.56,74,60,1.36,RU,1627052039
355,tuktoyaktuk,69.4541,-133.0374,11.0,76,90,4.12,CA,1627052010
356,nola,40.922,14.5329,31.06,37,1,3.73,IT,1627052041
357,monrovia,6.3005,-10.7969,26.87,89,100,6.01,LR,1627052042
358,carora,10.1755,-70.0827,32.82,40,78,4.13,VE,1627052044
359,seoul,37.5683,126.9778,26.76,78,0,0.51,KR,1627051862
360,hobyo,5.3505,48.5268,25.84,76,100,14.09,SO,1627052046
361,dongsheng,39.8161,109.9776,23.87,55,13,4.52,CN,1627052047
362,belyy yar,53.6039,91.3903,21.94,73,0,2.0,RU,1627052048
363,groa,62.65,8.7167,16.05,50,7,3.2,NO,1627052050
364,port blair,11.6667,92.75,27.58,84,90,8.47,IN,1627052051
365,anadyr,64.75,177.4833,12.28,81,40,2.68,RU,1627052052
366,vila franca do campo,37.7167,-25.4333,22.23,63,37,2.88,PT,1627052054
367,cayenne,4.9333,-52.3333,31.02,75,20,2.24,GF,1627052056
368,tsabong,-26.0217,22.401,14.52,12,0,3.75,BW,1627052057
369,trairi,-3.2778,-39.2689,31.01,45,5,6.85,BR,1627051929
370,salcininkai,54.3,25.3833,25.05,64,64,4.1,LT,1627052059
371,san carlos,9.6612,-68.5827,27.05,83,56,1.56,VE,1627052060
372,amol,36.4696,52.3507,30.17,52,8,2.64,IR,1627052062
373,lima,-12.0432,-77.0282,18.28,80,90,4.12,PE,1627051872
374,bognor regis,50.7821,-0.6798,25.68,62,64,7.64,GB,1627051972
375,rio grande,-32.035,-52.0986,17.06,61,13,3.46,BR,1627052065
376,ribeira grande,38.5167,-28.7,23.22,83,75,4.12,PT,1627051997
377,raga,8.4596,25.678,29.77,63,94,0.78,SS,1627052068
378,malibu,34.005,-118.8101,25.7,91,75,1.8,US,1627052069
379,grenville,12.1167,-61.6167,28.03,80,68,6.51,GD,1627052070
380,gemena,3.25,19.7667,30.72,47,100,0.94,CD,1627052071
381,great yarmouth,52.6083,1.7305,19.75,72,91,4.09,GB,1627052073
382,lorengau,-2.0226,147.2712,27.49,81,60,2.51,PG,1627051957
383,kazachinskoye,57.6953,93.2761,18.04,73,0,1.42,RU,1627052075
384,arti,56.4234,58.5328,18.73,70,100,1.49,RU,1627052076
385,presidencia roque saenz pena,-26.7852,-60.4388,28.81,15,0,5.74,AR,1627052078
386,maniwaki,46.3834,-75.966,19.3,68,18,2.06,CA,1627051996
387,otane,-39.8833,176.6333,7.23,95,19,0.57,NZ,1627051813
388,asau,46.4333,26.4,24.6,51,98,2.0,RO,1627052081
389,teruel,40.6667,-0.6667,32.71,15,98,12.0,ES,1627052082
390,bengkulu,-3.8004,102.2655,25.12,84,69,1.9,ID,1627052084
391,kaduna,10.5222,7.4383,23.39,86,100,3.44,NG,1627052085
392,chapais,49.7834,-74.8492,20.88,37,6,1.88,CA,1627052086
393,teguldet,57.3064,88.1667,18.32,68,0,2.62,RU,1627052087
394,douala,4.0483,9.7043,26.95,78,75,3.09,CM,1627051971
395,oktyabrskiy,54.4815,53.471,21.22,50,100,0.39,RU,1627052090
396,praia da vitoria,38.7333,-27.0667,26.14,73,40,3.69,PT,1627052091
397,zabid,14.1951,43.3152,32.56,52,96,10.38,YE,1627052092
398,mankachar,25.5333,89.8667,27.2,83,100,5.66,IN,1627052094
399,vostok,46.4856,135.8833,20.99,83,2,1.78,RU,1627052095
400,oranjestad,12.524,-70.027,28.97,79,75,10.29,AW,1627052096
401,pokhara,28.2333,83.9833,24.05,95,73,0.85,NP,1627052097
402,trincomalee,8.5711,81.2335,28.31,68,100,10.84,LK,1627052099
403,vesyegonsk,58.664,37.2604,16.54,61,92,3.71,RU,1627052100
404,gizo,-8.103,156.8419,27.08,80,68,1.45,SB,1627052101
405,henties bay,-22.116,14.2845,21.59,44,0,5.08,NA,1627052110
406,alghero,40.5589,8.3181,33.05,35,0,3.6,IT,1627052111
407,imbituba,-28.24,-48.6703,19.34,54,2,6.08,BR,1627052019
408,tocopilla,-22.092,-70.1979,18.34,65,43,3.31,CL,1627052113
409,dryden,49.7833,-92.7503,21.16,83,90,3.6,CA,1627052115
410,ilheus,-14.7889,-39.0494,25.9,65,40,8.75,BR,1627052116
411,waingapu,-9.6567,120.2641,22.36,76,5,3.35,ID,1627052117
412,aklavik,68.2191,-135.0107,11.0,93,90,3.09,CA,1627052119
413,bayir,37.2687,28.2167,34.29,22,18,1.94,TR,1627052120
414,tefe,-3.3542,-64.7114,29.06,84,0,0.0,BR,1627052121
415,katsuura,35.1333,140.3,27.84,84,40,1.98,JP,1627052060
416,ejido hermosillo,32.5121,-114.9238,33.97,38,100,7.75,MX,1627052124
417,khani,41.9563,42.9566,18.76,89,77,1.33,GE,1627052125
418,shimoda,34.6667,138.95,26.06,84,65,1.04,JP,1627052126
419,barmer,25.75,71.3833,28.36,74,92,7.63,IN,1627052128
420,chiang khong,20.2613,100.4046,24.18,98,100,0.52,TH,1627052131
421,coahuayana,18.7333,-103.6833,28.2,77,93,1.39,MX,1627052027
422,ayr,55.4627,-4.6339,27.99,51,100,4.63,GB,1627052133
423,port lincoln,-34.7333,135.8667,12.7,70,36,12.38,AU,1627052135
424,purpe,64.4803,76.6897,21.97,80,100,16.05,RU,1627052136
425,saint-augustin,51.226,-58.6502,9.69,89,100,6.68,CA,1627052137
426,manati,18.4275,-66.4921,32.01,77,48,6.53,PR,1627052138
427,brigg,53.552,-0.4921,20.14,73,75,5.66,GB,1627052140
428,ust-kuyga,70.0167,135.6,12.85,61,92,2.64,RU,1627052141
429,airai,-8.9266,125.4092,12.76,59,5,1.36,TL,1627052014
430,dunmore town,25.5,-76.65,27.91,73,100,5.67,BS,1627052143
431,baculin,7.4525,126.5842,27.29,77,67,4.5,PH,1627052145
432,fort-shevchenko,44.5086,50.263,28.05,64,21,3.26,KZ,1627052146
433,mingaora,34.7758,72.3625,27.88,49,3,0.69,PK,1627052138
434,bastrop,32.7562,-91.8724,29.68,76,1,3.09,US,1627052148
435,harper,4.375,-7.7169,26.35,69,79,5.25,LR,1627052150
436,teya,60.3778,92.6267,18.32,77,27,0.9,RU,1627052151
437,tarakan,3.3,117.6333,28.72,84,40,2.57,ID,1627052152
438,biltine,14.5333,20.9167,31.45,43,88,3.1,TD,1627052153
439,luwuk,-0.9516,122.7875,24.77,89,100,3.43,ID,1627052155
440,kutum,14.2,24.6667,31.18,34,89,3.63,SD,1627052156
441,igarka,67.4667,86.5833,17.71,70,100,6.08,RU,1627052157
442,gravdal,68.1214,13.5031,9.94,93,75,2.06,NO,1627052158
443,tubuala,9.5167,-79.0333,30.74,82,99,4.38,PA,1627052160
444,banda aceh,5.5577,95.3222,27.77,79,99,6.36,ID,1627052104
445,plavsk,53.7094,37.2919,19.99,59,94,2.77,RU,1627052163
446,wamba,8.9333,8.6,22.3,95,100,1.85,NG,1627052164
447,evensk,61.95,159.2333,9.83,99,100,1.99,RU,1627052166
448,eluru,16.7,81.1,30.05,84,100,4.01,IN,1627052167
449,general higinio morinigo,-25.95,-55.9167,24.03,27,0,4.18,PY,1627052168
450,rosarito,32.3333,-117.0333,20.82,80,73,1.8,MX,1627052170
451,mwingi,-0.9344,38.0601,25.19,42,98,3.58,KE,1627052171
452,ewo,-0.8725,14.8206,33.2,32,88,1.87,CG,1627052172
453,itarema,-2.9248,-39.9167,31.09,46,5,8.07,BR,1627052173
454,nouakchott,18.0858,-15.9785,26.96,69,1,6.75,MR,1627052175
455,roald,62.5833,6.1333,25.65,77,0,8.23,NO,1627052176
456,komsomolskiy,40.4272,71.7189,34.4,22,9,2.06,UZ,1627051997
457,rio gallegos,-51.6226,-69.2181,4.03,65,0,9.26,AR,1627052178
458,pinega,64.7001,43.3936,12.26,45,98,4.72,RU,1627052180
459,kon tum,14.35,108.0,21.91,99,100,2.09,VN,1627052181
460,kaeo,-35.1,173.7833,6.29,94,3,1.67,NZ,1627052082
461,mosquera,4.7059,-74.2302,13.05,94,75,2.06,CO,1627052183
462,siguiri,11.6667,-9.5,31.22,54,97,0.89,GN,1627052185
463,sao joao da barra,-21.6403,-41.0511,25.05,60,84,3.61,BR,1627052162
464,dukhovnitskoye,52.4828,48.2137,22.43,48,0,5.06,RU,1627052187
465,jalu,29.0331,21.5482,36.02,24,0,5.27,LY,1627052188
466,port macquarie,-31.4333,152.9167,7.16,86,46,2.98,AU,1627051929
467,santa isabel do para,-1.2986,-48.1606,29.9,43,3,2.64,BR,1627052191
468,zambezi,-13.5432,23.1047,27.38,14,100,3.03,ZM,1627052192
469,faya,18.3851,42.4509,21.06,69,100,3.94,SA,1627052193
470,lucapa,-8.4192,20.7447,31.71,15,60,2.58,AO,1627052194
471,conway,35.0887,-92.4421,29.79,84,1,0.0,US,1627052196
472,moussoro,13.6408,16.4901,31.1,47,97,3.28,TD,1627052197
473,smolenka,52.1352,113.4974,16.04,72,8,2.0,RU,1627052198
474,nouadhibou,20.931,-17.0347,24.99,61,0,8.75,MR,1627052201
475,bandarbeyla,9.4942,50.8122,25.41,80,65,15.76,SO,1627052202
476,kununurra,-15.7667,128.7333,17.99,77,22,1.03,AU,1627052203
477,saint anthony,45.0205,-93.218,28.36,65,47,4.59,US,1627052204
478,ahipara,-35.1667,173.1667,10.01,84,1,1.45,NZ,1627051967
479,poya,-21.35,165.15,20.93,84,90,1.49,NC,1627052207
480,belle glade,26.6845,-80.6676,32.79,65,67,1.89,US,1627051971
481,tatarbunary,45.8373,29.6142,26.81,34,0,5.05,UA,1627052209
482,hovd,48.0056,91.6419,23.48,41,68,2.74,MN,1627052210
483,maragogi,-9.0122,-35.2225,25.41,77,37,6.88,BR,1627052212
484,yumen,40.2833,97.2,32.47,24,48,5.74,CN,1627052213
485,chimbote,-9.0853,-78.5783,19.42,77,43,2.81,PE,1627052096
486,lubumbashi,-11.6609,27.4794,26.36,26,6,2.63,CD,1627052215
487,bahia de caraquez,-0.6,-80.4167,24.1,72,76,2.39,EC,1627052218
488,sambava,-14.2667,50.1667,22.71,75,4,5.68,MG,1627052219
489,shubarkuduk,49.1447,56.4872,30.56,29,100,10.75,KZ,1627052220
490,qinnan,33.2531,119.9133,23.68,95,0,2.75,CN,1627052222
491,rocha,-34.4833,-54.3333,19.69,62,7,4.37,UY,1627052127
492,sobolevo,54.4299,31.8996,20.13,74,52,5.36,RU,1627052224
493,litovko,49.2361,135.1742,25.57,79,0,2.12,RU,1627052225
494,pipraich,26.8264,83.53,31.24,69,69,2.65,IN,1627052227
495,christchurch,-43.5333,172.6333,7.73,90,6,1.34,NZ,1627051934
496,severobaykalsk,55.65,109.3167,11.57,92,90,1.98,RU,1627052229
497,zhezkazgan,47.8043,67.7144,31.44,21,0,3.25,KZ,1627052230
498,makakilo city,21.3469,-158.0858,25.18,77,75,3.09,US,1627052232
499,kisangani,0.5167,25.2,32.14,40,100,1.58,CD,1627052233
500,la presa,32.7081,-116.9973,26.83,86,1,1.34,US,1627052234
501,mokhsogollokh,61.4681,128.9203,15.91,94,100,3.03,RU,1627052235
502,pangnirtung,66.1451,-65.7125,8.0,93,90,5.66,CA,1627052239
503,ketchikan,55.3422,-131.6461,12.26,94,90,3.09,US,1627052240
504,mindelo,16.8901,-24.9804,27.75,51,20,7.72,CV,1627052241
505,mus,39.0,41.75,27.1,33,100,3.66,TR,1627052243
506,butte,39.6499,-121.5677,29.75,40,1,0.95,US,1627052244
507,zhigalovo,54.8097,105.1578,13.2,96,1,1.19,RU,1627052245
508,asyut,27.181,31.1837,41.1,16,0,7.58,EG,1627052248
509,avera,33.194,-82.5271,30.51,57,97,2.83,US,1627052249
510,milkovo,54.7167,158.6167,13.09,90,49,2.61,RU,1627052250
511,zhaoyuan,37.3592,120.3964,23.91,80,94,2.36,CN,1627052252
512,port hardy,50.6996,-127.4199,13.1,94,90,1.03,CA,1627052255
513,ca mau,9.1769,105.15,26.39,89,100,1.94,VN,1627052257
514,mayor pablo lagerenza,-19.9309,-60.7718,32.51,20,0,5.16,PY,1627052259
515,kahului,20.8947,-156.47,24.91,93,69,3.13,US,1627052165
516,dzilam gonzalez,21.2833,-88.9333,30.89,61,14,3.27,MX,1627052261
517,staraya poltavka,50.4772,46.4814,25.92,32,100,7.62,RU,1627052262
518,port hedland,-20.3167,118.5667,18.03,72,3,3.6,AU,1627052264
519,bonoua,5.2741,-3.595,28.79,65,89,4.43,CI,1627052265
520,nantucket,41.2835,-70.0995,25.58,81,79,4.09,US,1627052119
521,leon,21.1167,-101.6667,18.93,71,76,1.26,MX,1627051973
522,tarkwa,5.3064,-1.9847,28.64,58,89,3.55,GH,1627052268
523,canaries,28.0,-15.5,23.98,47,20,15.43,ES,1627052270
524,waipawa,-41.4122,175.5153,4.35,89,0,2.06,NZ,1627052271
525,worcester,42.3334,-71.8328,24.88,63,10,2.71,US,1627052131
526,baglung,28.2719,83.5898,22.89,96,49,0.51,NP,1627052274
527,aqtobe,50.2797,57.2072,22.05,83,20,5.0,KZ,1627052276
528,le port,-20.9373,55.2919,22.0,68,61,2.65,RE,1627052277
529,sisimiut,66.9395,-53.6735,5.29,90,100,3.52,GL,1627052278
530,araouane,18.9048,-3.5265,40.27,22,92,3.85,ML,1627052280
531,hualmay,-11.0964,-77.6139,19.47,72,15,3.65,PE,1627052281
532,abu dhabi,24.4667,54.3667,41.06,39,0,4.12,AE,1627052110
533,camana,-16.6228,-72.7111,16.86,78,71,2.3,PE,1627052283
534,nome,64.5011,-165.4064,5.65,96,17,2.6,US,1627052285
535,yulara,-25.2406,130.9889,12.91,38,2,2.57,AU,1627052286
536,tunceli,39.1083,39.5471,32.35,19,6,3.94,TR,1627052288
537,omboue,-1.5746,9.2618,24.65,70,72,4.81,GA,1627052289
538,rock sound,24.9,-76.2,27.7,77,100,5.24,BS,1627052291
539,flinders,-34.5833,150.8552,12.99,85,72,2.57,AU,1627052292
540,asosa,10.0667,34.5333,18.99,94,99,0.67,ET,1627052293
541,tyukhtet,56.5389,89.3011,17.77,73,30,3.05,RU,1627052295
542,siniscola,40.5719,9.6922,32.75,45,0,3.31,IT,1627052296
543,jiuquan,39.7432,98.5174,30.83,24,8,3.35,CN,1627052297
544,jeremie,18.65,-74.1167,29.67,65,12,2.41,HT,1627052298
545,hailar,49.2,119.7,18.7,83,20,3.57,CN,1627052300
546,comodoro rivadavia,-45.8667,-67.5,7.92,46,0,11.32,AR,1627052301
547,snyder,32.7179,-100.9176,25.73,78,90,6.17,US,1627052302
548,popondetta,-8.7537,148.2534,23.88,89,100,1.18,PG,1627052305
549,amahai,-3.3333,128.9167,25.05,88,100,2.38,ID,1627052105
550,aksu,41.1231,80.2644,27.57,45,0,2.6,CN,1627052307
551,guasdualito,7.2424,-70.7324,27.5,73,67,2.69,VE,1627052308
552,debre birhan,9.6833,39.5333,14.75,72,84,2.18,ET,1627052310
553,chulumani,-16.4096,-67.5263,23.72,44,0,1.88,BO,1627052311
554,ulaangom,49.9811,92.0667,22.29,44,69,1.26,MN,1627052312
555,ipaba,-19.4136,-42.4194,23.08,53,20,2.06,BR,1627052314
556,soe,-9.8607,124.284,15.1,73,0,1.96,ID,1627052315
557,lososina,48.9975,140.3106,17.86,98,100,1.97,RU,1627052316
558,barcelos,41.5388,-8.6151,25.16,63,27,4.72,PT,1627052284
559,mikumi,-7.4041,36.9831,25.03,42,81,2.01,TZ,1627052319
560,riyadh,24.6877,46.7219,45.08,9,7,6.04,SA,1627052320
561,maebaru,33.55,130.2,28.31,75,100,2.65,JP,1627052321
562,nyurba,63.2842,118.3319,16.69,76,99,1.54,RU,1627052322
563,karratha,-20.7377,116.8463,23.31,33,3,5.51,AU,1627052324
564,brae,60.3964,-1.353,13.95,75,10,3.43,GB,1627052325
565,urengoy,65.9667,78.3667,23.59,69,99,11.45,RU,1627052326
566,whitehorse,60.7161,-135.0538,9.43,70,20,2.68,CA,1627052328
567,ternate,0.8,127.4,27.74,80,94,4.48,ID,1627052329
568,palaikastron,35.2,26.25,25.92,65,0,15.49,GR,1627052330
569,shirokiy,49.758,129.523,21.91,93,99,2.98,RU,1627052331
570,pisco,-13.7,-76.2167,17.23,77,90,1.54,PE,1627052333
571,rockland,41.1668,-74.0496,26.36,56,3,3.0,US,1627052129
572,paracuru,-3.41,-39.0306,31.01,50,5,7.21,BR,1627052335
573,kaifeng,34.7911,114.3483,26.48,90,98,1.36,CN,1627052336
574,north bend,43.4065,-124.2243,14.51,88,1,1.84,US,1627052338
575,primero de enero,21.9469,-78.4283,30.52,61,23,4.5,CU,1627052339
576,pemangkat,1.1667,108.9667,27.23,81,82,4.85,ID,1627052340
577,murree,33.9073,73.393,24.02,52,5,0.54,PK,1627052341
578,cam ranh,11.9214,109.1591,28.98,65,40,3.09,VN,1627052344
579,waitati,-45.75,170.5667,6.56,71,23,1.98,NZ,1627052345
580,zadar,44.1197,15.2422,31.34,30,20,5.14,HR,1627052346
581,villaviciosa,43.4813,-5.4357,29.66,70,86,2.21,ES,1627052348
582,khash,28.2211,61.2158,34.12,9,99,6.4,IR,1627052349
583,santa maria da vitoria,-13.3947,-44.1886,28.4,35,83,4.27,BR,1627052350
584,beruwala,6.4788,79.9828,26.11,83,76,4.94,LK,1627052108
585,volterra,43.4003,10.86,32.39,31,0,5.45,IT,1627052354
586,kallifitos,41.1667,24.2167,30.05,34,77,2.57,GR,1627052355
587,acapulco,16.8634,-99.8901,28.89,69,36,0.88,MX,1627052357
588,palasa,18.7667,84.4167,26.83,90,100,2.65,IN,1627052358
589,kemise,10.7167,39.8667,24.69,59,99,0.28,ET,1627052359
590,xichang,27.8964,102.2634,20.02,89,94,1.24,CN,1627052360
591,hof,50.3167,11.9167,28.03,49,0,2.06,DE,1627052362
592,te anau,-45.4167,167.7167,5.61,92,99,1.03,NZ,1627052096
593,kamenka,51.3223,42.7678,23.77,40,2,5.12,RU,1627052364
594,myski,53.709,87.8014,19.71,80,100,0.97,RU,1627052365
595,sept-iles,50.2001,-66.3821,21.14,59,90,1.79,CA,1627052192
596,herat,34.5,62.0,32.94,11,0,6.79,AF,1627052369
597,jutai,-5.1833,-68.9,31.62,40,43,2.1,BR,1627052370
598,healdsburg,38.6105,-122.8692,25.48,38,1,0.14,US,1627052371
599,nizhnevartovsk,60.9344,76.5531,27.01,47,0,6.0,RU,1627052331
600,cowra,-33.8333,148.6833,11.26,96,100,3.94,AU,1627052374
601,cabedelo,-6.9811,-34.8339,27.37,71,30,7.37,BR,1627052375
602,micheweni,-4.9667,39.8333,25.21,73,8,7.31,TZ,1627052376
603,antofagasta,-23.65,-70.4,17.9,58,1,1.46,CL,1627052084
604,xai-xai,-25.0519,33.6442,16.95,59,43,7.52,MZ,1627052379
605,apollonia,36.9716,24.7231,27.69,67,0,12.22,GR,1627052380
606,raub,3.7899,101.857,24.98,84,94,0.99,MY,1627052381
607,baker city,44.7749,-117.8344,18.69,19,0,1.44,US,1627052383
608,phan thiet,10.9333,108.1,25.97,83,100,3.65,VN,1627052384
